{
    "type" : "FeatureCollection",
    "name" : "Sheet1",
    "features" : [
        {
            "type" : "Feature",
            "geometry" : {
              "type" : "Point",
              "coordinates" : [ -89.7304045, 35.166807 ]
            },
            "properties" : {
              "ZIP_CO_PSA" : "38016MMPHTNGT1285PA",
              "WIRELESS_SCORE" : 4,
              "LONGITUDE" : -89.7304045,
              "LATITUDE" : 35.166807
            }
        },
        {
            "type" : "Feature",
            "geometry" : {
              "type" : "Point",
              "coordinates" : [ -86.786756, 35.9246315 ]
            },
            "properties" : {
              "ZIP_CO_PSA" : "37067FKLNTNMA3153PA",
              "WIRELESS_SCORE" : 4,
              "LONGITUDE" : -86.786756,
              "LATITUDE" : 35.9246315
            }
        },
        {
            "type" : "Feature",
            "geometry" : {
              "type" : "Point",
              "coordinates" : [ -86.793807, 36.152473 ]
            },
            "properties" : {
              "ZIP_CO_PSA" : "37203NSVLTNMT5112PC",
              "WIRELESS_SCORE" : 3,
              "LONGITUDE" : -86.793807,
              "LATITUDE" : 36.152473
            }
        },
        {
            "type" : "Feature",
            "geometry" : {
              "type" : "Point",
              "coordinates" : [ -85.8176505, 38.2526305 ]
            },
            "properties" : {
              "ZIP_CO_PSA" : "40211LSVLKY264328LA",
              "WIRELESS_SCORE" : 4,
              "LONGITUDE" : -85.8176505,
              "LATITUDE" : 38.2526305
            }
        },
        {
            "type" : "Feature",
            "geometry" : {
              "type" : "Point",
              "coordinates" : [ -83.282263, 36.208739 ]
            },
            "properties" : {
              "ZIP_CO_PSA" : "37813MRTWTNMA5101PA",
              "WIRELESS_SCORE" : 4,
              "LONGITUDE" : -83.282263,
              "LATITUDE" : 36.208739
            }
        },
        {
            "type" : "Feature",
            "geometry" : {
              "type" : "Point",
              "coordinates" : [ -86.456203, 35.811825 ]
            },
            "properties" : {
              "ZIP_CO_PSA" : "37128MRBOTNMA3921PF",
              "WIRELESS_SCORE" : 3,
              "LONGITUDE" : -86.456203,
              "LATITUDE" : 35.811825
            }
        },
        {
            "type" : "Feature",
            "geometry" : {
              "type" : "Point",
              "coordinates" : [ -86.04638, 40.003025 ]
            },
            "properties" : {
              "ZIP_CO_PSA" : "46062NBVLIN013115LA",
              "WIRELESS_SCORE" : 4,
              "LONGITUDE" : -86.04638,
              "LATITUDE" : 40.003025
            }
        },
        {
            "type" : "Feature",
            "geometry" : {
              "type" : "Point",
              "coordinates" : [ -85.099486, 35.127345 ]
            },
            "properties" : {
              "ZIP_CO_PSA" : "37363CHTGTNHT1112PA",
              "WIRELESS_SCORE" : 4,
              "LONGITUDE" : -85.099486,
              "LATITUDE" : 35.127345
            }
        },
        {
            "type" : "Feature",
            "geometry" : {
              "type" : "Point",
              "coordinates" : [ -89.724981, 35.156383 ]
            },
            "properties" : {
              "ZIP_CO_PSA" : "38018MMPHTNGT1285PA",
              "WIRELESS_SCORE" : 3,
              "LONGITUDE" : -89.724981,
              "LATITUDE" : 35.156383
            }
        },
        {
            "type" : "Feature",
            "geometry" : {
              "type" : "Point",
              "coordinates" : [ -86.20503, 41.674565 ]
            },
            "properties" : {
              "ZIP_CO_PSA" : "46615SBNDIN013112LA",
              "WIRELESS_SCORE" : 3,
              "LONGITUDE" : -86.20503,
              "LATITUDE" : 41.674565
            }
        },
        {
            "type" : "Feature",
            "geometry" : {
              "type" : "Point",
              "coordinates" : [ -84.016187, 35.7039225 ]
            },
            "properties" : {
              "ZIP_CO_PSA" : "37803MAVLTNMA5225PA",
              "WIRELESS_SCORE" : 4,
              "LONGITUDE" : -84.016187,
              "LATITUDE" : 35.7039225
            }
        },
        {
            "type" : "Feature",
            "geometry" : {
              "type" : "Point",
              "coordinates" : [ -86.184248, 39.670399 ]
            },
            "properties" : {
              "ZIP_CO_PSA" : "46217IPLSIN093507LA",
              "WIRELESS_SCORE" : 4,
              "LONGITUDE" : -86.184248,
              "LATITUDE" : 39.670399
            }
        },
        {
            "type" : "Feature",
            "geometry" : {
              "type" : "Point",
              "coordinates" : [ -86.670345, 36.273526 ]
            },
            "properties" : {
              "ZIP_CO_PSA" : "37138OLHCTNMA1112LA",
              "WIRELESS_SCORE" : 4,
              "LONGITUDE" : -86.670345,
              "LATITUDE" : 36.273526
            }
        },
        {
            "type" : "Feature",
            "geometry" : {
              "type" : "Point",
              "coordinates" : [ -85.323129, 35.1085 ]
            },
            "properties" : {
              "ZIP_CO_PSA" : "37405CHTGTNRB7112PB",
              "WIRELESS_SCORE" : 3,
              "LONGITUDE" : -85.323129,
              "LATITUDE" : 35.1085
            }
        },
        {
            "type" : "Feature",
            "geometry" : {
              "type" : "Point",
              "coordinates" : [ -86.83761, 35.947855 ]
            },
            "properties" : {
              "ZIP_CO_PSA" : "37067FKLNTNCC2103PB",
              "WIRELESS_SCORE" : 4,
              "LONGITUDE" : -86.83761,
              "LATITUDE" : 35.947855
            }
        },
        {
            "type" : "Feature",
            "geometry" : {
              "type" : "Point",
              "coordinates" : [ -86.784639, 36.175901 ]
            },
            "properties" : {
              "ZIP_CO_PSA" : "37208NSVLTNMT1147PA",
              "WIRELESS_SCORE" : 3,
              "LONGITUDE" : -86.784639,
              "LATITUDE" : 36.175901
            }
        },
        {
            "type" : "Feature",
            "geometry" : {
              "type" : "Point",
              "coordinates" : [ -85.675367, 38.175425 ]
            },
            "properties" : {
              "ZIP_CO_PSA" : "40213LSVLKYOA1422LB",
              "WIRELESS_SCORE" : 4,
              "LONGITUDE" : -85.675367,
              "LATITUDE" : 38.175425
            }
        },
        {
            "type" : "Feature",
            "geometry" : {
              "type" : "Point",
              "coordinates" : [ -88.644371, 36.722281 ]
            },
            "properties" : {
              "ZIP_CO_PSA" : "42066MYFDKYMA4109PA",
              "WIRELESS_SCORE" : 4,
              "LONGITUDE" : -88.644371,
              "LATITUDE" : 36.722281
            }
        },
        {
            "type" : "Feature",
            "geometry" : {
              "type" : "Point",
              "coordinates" : [ -87.442182, 37.964755 ]
            },
            "properties" : {
              "ZIP_CO_PSA" : "47630NWBRIN014015PA",
              "WIRELESS_SCORE" : 3,
              "LONGITUDE" : -87.442182,
              "LATITUDE" : 37.964755
            }
        },
        {
            "type" : "Feature",
            "geometry" : {
              "type" : "Point",
              "coordinates" : [ -86.46664, 36.987391 ]
            },
            "properties" : {
              "ZIP_CO_PSA" : "42101BWLGKYMA6103PA",
              "WIRELESS_SCORE" : 4,
              "LONGITUDE" : -86.46664,
              "LATITUDE" : 36.987391
            }
        },
        {
            "type" : "Feature",
            "geometry" : {
              "type" : "Point",
              "coordinates" : [ -84.895484, 35.211661 ]
            },
            "properties" : {
              "ZIP_CO_PSA" : "37312CLEVTNMA8214PB",
              "WIRELESS_SCORE" : 4,
              "LONGITUDE" : -84.895484,
              "LATITUDE" : 35.211661
            }
        },
        {
            "type" : "Feature",
            "geometry" : {
              "type" : "Point",
              "coordinates" : [ -87.4854, 36.6681 ]
            },
            "properties" : {
              "ZIP_CO_PSA" : "42223OKGVKYES4184PA",
              "WIRELESS_SCORE" : 5,
              "LONGITUDE" : -87.4854,
              "LATITUDE" : 36.6681
            }
        },
        {
            "type" : "Feature",
            "geometry" : {
              "type" : "Point",
              "coordinates" : [ -86.115559, 39.5993275 ]
            },
            "properties" : {
              "ZIP_CO_PSA" : "46143GNWDIN014114LA",
              "WIRELESS_SCORE" : 3,
              "LONGITUDE" : -86.115559,
              "LATITUDE" : 39.5993275
            }
        },
        {
            "type" : "Feature",
            "geometry" : {
              "type" : "Point",
              "coordinates" : [ -85.589061, 38.19282 ]
            },
            "properties" : {
              "ZIP_CO_PSA" : "40299LSVLKYSL2106PA",
              "WIRELESS_SCORE" : 4,
              "LONGITUDE" : -85.589061,
              "LATITUDE" : 38.19282
            }
        },
        {
            "type" : "Feature",
            "geometry" : {
              "type" : "Point",
              "coordinates" : [ -85.398348, 40.17552 ]
            },
            "properties" : {
              "ZIP_CO_PSA" : "47302MUNCIN013204PA",
              "WIRELESS_SCORE" : 4,
              "LONGITUDE" : -85.398348,
              "LATITUDE" : 40.17552
            }
        },
        {
            "type" : "Feature",
            "geometry" : {
              "type" : "Point",
              "coordinates" : [ -86.139422, 40.50002 ]
            },
            "properties" : {
              "ZIP_CO_PSA" : "46901KOKMIN011105PA",
              "WIRELESS_SCORE" : 4,
              "LONGITUDE" : -86.139422,
              "LATITUDE" : 40.50002
            }
        },
        {
            "type" : "Feature",
            "geometry" : {
              "type" : "Point",
              "coordinates" : [ -88.8183275, 35.698694 ]
            },
            "properties" : {
              "ZIP_CO_PSA" : "38305JCSNTNNS3211PA",
              "WIRELESS_SCORE" : 4,
              "LONGITUDE" : -88.8183275,
              "LATITUDE" : 35.698694
            }
        },
        {
            "type" : "Feature",
            "geometry" : {
              "type" : "Point",
              "coordinates" : [ -87.328566, 36.567522 ]
            },
            "properties" : {
              "ZIP_CO_PSA" : "37040CLVLTNMA1263LA",
              "WIRELESS_SCORE" : 4,
              "LONGITUDE" : -87.328566,
              "LATITUDE" : 36.567522
            }
        },
        {
            "type" : "Feature",
            "geometry" : {
              "type" : "Point",
              "coordinates" : [ -86.112214, 39.706407 ]
            },
            "properties" : {
              "ZIP_CO_PSA" : "46227IPLSIN093119PA",
              "WIRELESS_SCORE" : 3,
              "LONGITUDE" : -86.112214,
              "LATITUDE" : 39.706407
            }
        },
        {
            "type" : "Feature",
            "geometry" : {
              "type" : "Point",
              "coordinates" : [ -86.71027, 36.08695 ]
            },
            "properties" : {
              "ZIP_CO_PSA" : "37211NSVLTNCH5316PA",
              "WIRELESS_SCORE" : 4,
              "LONGITUDE" : -86.71027,
              "LATITUDE" : 36.08695
            }
        },
        {
            "type" : "Feature",
            "geometry" : {
              "type" : "Point",
              "coordinates" : [ -86.249744, 39.8120265 ]
            },
            "properties" : {
              "ZIP_CO_PSA" : "46224IPLSIN073145LA",
              "WIRELESS_SCORE" : 3,
              "LONGITUDE" : -86.249744,
              "LATITUDE" : 39.8120265
            }
        },
        {
            "type" : "Feature",
            "geometry" : {
              "type" : "Point",
              "coordinates" : [ -86.21017, 41.658034 ]
            },
            "properties" : {
              "ZIP_CO_PSA" : "46544MSHWIN024105LA",
              "WIRELESS_SCORE" : 4,
              "LONGITUDE" : -86.21017,
              "LATITUDE" : 41.658034
            }
        },
        {
            "type" : "Feature",
            "geometry" : {
              "type" : "Point",
              "coordinates" : [ -87.593771, 37.8292775 ]
            },
            "properties" : {
              "ZIP_CO_PSA" : "42420HNSNKYMA4105PB",
              "WIRELESS_SCORE" : 3,
              "LONGITUDE" : -87.593771,
              "LATITUDE" : 37.8292775
            }
        },
        {
            "type" : "Feature",
            "geometry" : {
              "type" : "Point",
              "coordinates" : [ -86.48127, 35.926088 ]
            },
            "properties" : {
              "ZIP_CO_PSA" : "37129MRBOTNMA4774PA",
              "WIRELESS_SCORE" : 4,
              "LONGITUDE" : -86.48127,
              "LATITUDE" : 35.926088
            }
        },
        {
            "type" : "Feature",
            "geometry" : {
              "type" : "Point",
              "coordinates" : [ -84.838652, 37.757065 ]
            },
            "properties" : {
              "ZIP_CO_PSA" : "40330HDBGKYMA3182LA",
              "WIRELESS_SCORE" : 4,
              "LONGITUDE" : -84.838652,
              "LATITUDE" : 37.757065
            }
        },
        {
            "type" : "Feature",
            "geometry" : {
              "type" : "Point",
              "coordinates" : [ -89.7742605, 35.1405455 ]
            },
            "properties" : {
              "ZIP_CO_PSA" : "38018MMPHTNGT1268PA",
              "WIRELESS_SCORE" : 4,
              "LONGITUDE" : -89.7742605,
              "LATITUDE" : 35.1405455
            }
        },
        {
            "type" : "Feature",
            "geometry" : {
              "type" : "Point",
              "coordinates" : [ -87.3317485, 36.630059 ]
            },
            "properties" : {
              "ZIP_CO_PSA" : "37042CLVLTNMA1295LA",
              "WIRELESS_SCORE" : 3,
              "LONGITUDE" : -87.3317485,
              "LATITUDE" : 36.630059
            }
        },
        {
            "type" : "Feature",
            "geometry" : {
              "type" : "Point",
              "coordinates" : [ -87.4766995, 36.867356 ]
            },
            "properties" : {
              "ZIP_CO_PSA" : "42240HPVLKYMA2191PA",
              "WIRELESS_SCORE" : 3,
              "LONGITUDE" : -87.4766995,
              "LATITUDE" : 36.867356
            }
        },
        {
            "type" : "Feature",
            "geometry" : {
              "type" : "Point",
              "coordinates" : [ -88.863582, 35.709752 ]
            },
            "properties" : {
              "ZIP_CO_PSA" : "38305JCSNTNNS1214PA",
              "WIRELESS_SCORE" : 3,
              "LONGITUDE" : -88.863582,
              "LATITUDE" : 35.709752
            }
        },
        {
            "type" : "Feature",
            "geometry" : {
              "type" : "Point",
              "coordinates" : [ -85.7532065, 38.228937 ]
            },
            "properties" : {
              "ZIP_CO_PSA" : "40208LSVLKYTS1154LA",
              "WIRELESS_SCORE" : 4,
              "LONGITUDE" : -85.7532065,
              "LATITUDE" : 38.228937
            }
        },
        {
            "type" : "Feature",
            "geometry" : {
              "type" : "Point",
              "coordinates" : [ -86.14339, 39.917917 ]
            },
            "properties" : {
              "ZIP_CO_PSA" : "46240CRMLIN013109PA",
              "WIRELESS_SCORE" : 3,
              "LONGITUDE" : -86.14339,
              "LATITUDE" : 39.917917
            }
        },
        {
            "type" : "Feature",
            "geometry" : {
              "type" : "Point",
              "coordinates" : [ -88.86538, 35.696085 ]
            },
            "properties" : {
              "ZIP_CO_PSA" : "38305JCSNTNNS1213PA",
              "WIRELESS_SCORE" : 4,
              "LONGITUDE" : -88.86538,
              "LATITUDE" : 35.696085
            }
        },
        {
            "type" : "Feature",
            "geometry" : {
              "type" : "Point",
              "coordinates" : [ -88.634215, 35.446169 ]
            },
            "properties" : {
              "ZIP_CO_PSA" : "38340HNSNTNMT1105PA",
              "WIRELESS_SCORE" : 3,
              "LONGITUDE" : -88.634215,
              "LATITUDE" : 35.446169
            }
        },
        {
            "type" : "Feature",
            "geometry" : {
              "type" : "Point",
              "coordinates" : [ -84.8655, 35.112296 ]
            },
            "properties" : {
              "ZIP_CO_PSA" : "37323CLEVTNMA4107PA",
              "WIRELESS_SCORE" : 3,
              "LONGITUDE" : -84.8655,
              "LATITUDE" : 35.112296
            }
        },
        {
            "type" : "Feature",
            "geometry" : {
              "type" : "Point",
              "coordinates" : [ -89.854974, 35.26044 ]
            },
            "properties" : {
              "ZIP_CO_PSA" : "38135MMPHTNBA1186PA",
              "WIRELESS_SCORE" : 4,
              "LONGITUDE" : -89.854974,
              "LATITUDE" : 35.26044
            }
        },
        {
            "type" : "Feature",
            "geometry" : {
              "type" : "Point",
              "coordinates" : [ -86.6737105, 36.249713 ]
            },
            "properties" : {
              "ZIP_CO_PSA" : "37115NSVLTNMC2122PA",
              "WIRELESS_SCORE" : 4,
              "LONGITUDE" : -86.6737105,
              "LATITUDE" : 36.249713
            }
        },
        {
            "type" : "Feature",
            "geometry" : {
              "type" : "Point",
              "coordinates" : [ -88.84124, 35.640189 ]
            },
            "properties" : {
              "ZIP_CO_PSA" : "38301JCSNTNNS3101PB",
              "WIRELESS_SCORE" : 3,
              "LONGITUDE" : -88.84124,
              "LATITUDE" : 35.640189
            }
        },
        {
            "type" : "Feature",
            "geometry" : {
              "type" : "Point",
              "coordinates" : [ -86.82501, 36.161494 ]
            },
            "properties" : {
              "ZIP_CO_PSA" : "37209NSVLTNUN1127LA",
              "WIRELESS_SCORE" : 3,
              "LONGITUDE" : -86.82501,
              "LATITUDE" : 36.161494
            }
        },
        {
            "type" : "Feature",
            "geometry" : {
              "type" : "Point",
              "coordinates" : [ -86.362374, 41.66198 ]
            },
            "properties" : {
              "ZIP_CO_PSA" : "46619SBNDIN017204LA",
              "WIRELESS_SCORE" : 4,
              "LONGITUDE" : -86.362374,
              "LATITUDE" : 41.66198
            }
        },
        {
            "type" : "Feature",
            "geometry" : {
              "type" : "Point",
              "coordinates" : [ -86.043888, 39.895119 ]
            },
            "properties" : {
              "ZIP_CO_PSA" : "46256FSHRIN013103LA",
              "WIRELESS_SCORE" : 3,
              "LONGITUDE" : -86.043888,
              "LATITUDE" : 39.895119
            }
        },
        {
            "type" : "Feature",
            "geometry" : {
              "type" : "Point",
              "coordinates" : [ -84.301248, 35.798092 ]
            },
            "properties" : {
              "ZIP_CO_PSA" : "37771LNCYTNMA1229PA",
              "WIRELESS_SCORE" : 4,
              "LONGITUDE" : -84.301248,
              "LATITUDE" : 35.798092
            }
        },
        {
            "type" : "Feature",
            "geometry" : {
              "type" : "Point",
              "coordinates" : [ -85.86677, 38.1508 ]
            },
            "properties" : {
              "ZIP_CO_PSA" : "40258LSVLKYVS4218LA",
              "WIRELESS_SCORE" : 4,
              "LONGITUDE" : -85.86677,
              "LATITUDE" : 38.1508
            }
        },
        {
            "type" : "Feature",
            "geometry" : {
              "type" : "Point",
              "coordinates" : [ -83.890487, 35.88728 ]
            },
            "properties" : {
              "ZIP_CO_PSA" : "37920KNVLTNYH5215PA",
              "WIRELESS_SCORE" : 4,
              "LONGITUDE" : -83.890487,
              "LATITUDE" : 35.88728
            }
        },
        {
            "type" : "Feature",
            "geometry" : {
              "type" : "Point",
              "coordinates" : [ -84.069876, 35.8677455 ]
            },
            "properties" : {
              "ZIP_CO_PSA" : "37922KNVLTNWH7260PA",
              "WIRELESS_SCORE" : 4,
              "LONGITUDE" : -84.069876,
              "LATITUDE" : 35.8677455
            }
        },
        {
            "type" : "Feature",
            "geometry" : {
              "type" : "Point",
              "coordinates" : [ -84.8613685, 35.152464 ]
            },
            "properties" : {
              "ZIP_CO_PSA" : "37311CLEVTNMA3110PA",
              "WIRELESS_SCORE" : 3,
              "LONGITUDE" : -84.8613685,
              "LATITUDE" : 35.152464
            }
        },
        {
            "type" : "Feature",
            "geometry" : {
              "type" : "Point",
              "coordinates" : [ -85.824135, 38.240191 ]
            },
            "properties" : {
              "ZIP_CO_PSA" : "40211LSVLKY264213PA",
              "WIRELESS_SCORE" : 3,
              "LONGITUDE" : -85.824135,
              "LATITUDE" : 38.240191
            }
        },
        {
            "type" : "Feature",
            "geometry" : {
              "type" : "Point",
              "coordinates" : [ -89.669714, 35.0774175 ]
            },
            "properties" : {
              "ZIP_CO_PSA" : "38017CRVLTNMA7142PB",
              "WIRELESS_SCORE" : 4,
              "LONGITUDE" : -89.669714,
              "LATITUDE" : 35.0774175
            }
        },
        {
            "type" : "Feature",
            "geometry" : {
              "type" : "Point",
              "coordinates" : [ -84.065877, 35.979555 ]
            },
            "properties" : {
              "ZIP_CO_PSA" : "37931KNVLTNWH1154PB",
              "WIRELESS_SCORE" : 4,
              "LONGITUDE" : -84.065877,
              "LATITUDE" : 35.979555
            }
        },
        {
            "type" : "Feature",
            "geometry" : {
              "type" : "Point",
              "coordinates" : [ -85.7461455, 38.220558 ]
            },
            "properties" : {
              "ZIP_CO_PSA" : "40217LSVLKYTS2102LB",
              "WIRELESS_SCORE" : 4,
              "LONGITUDE" : -85.7461455,
              "LATITUDE" : 38.220558
            }
        },
        {
            "type" : "Feature",
            "geometry" : {
              "type" : "Point",
              "coordinates" : [ -84.850705, 35.183234 ]
            },
            "properties" : {
              "ZIP_CO_PSA" : "37312CLEVTNMA1106PA",
              "WIRELESS_SCORE" : 4,
              "LONGITUDE" : -84.850705,
              "LATITUDE" : 35.183234
            }
        },
        {
            "type" : "Feature",
            "geometry" : {
              "type" : "Point",
              "coordinates" : [ -86.272127, 39.831065 ]
            },
            "properties" : {
              "ZIP_CO_PSA" : "46254IPLSIN073109LA",
              "WIRELESS_SCORE" : 3,
              "LONGITUDE" : -86.272127,
              "LATITUDE" : 39.831065
            }
        },
        {
            "type" : "Feature",
            "geometry" : {
              "type" : "Point",
              "coordinates" : [ -83.5305215, 35.723371 ]
            },
            "properties" : {
              "ZIP_CO_PSA" : "37738GTBGTNMT4112PA",
              "WIRELESS_SCORE" : 3,
              "LONGITUDE" : -83.5305215,
              "LATITUDE" : 35.723371
            }
        },
        {
            "type" : "Feature",
            "geometry" : {
              "type" : "Point",
              "coordinates" : [ -89.79694, 35.060245 ]
            },
            "properties" : {
              "ZIP_CO_PSA" : "38119MMPHTNGT5160PA",
              "WIRELESS_SCORE" : 3,
              "LONGITUDE" : -89.79694,
              "LATITUDE" : 35.060245
            }
        },
        {
            "type" : "Feature",
            "geometry" : {
              "type" : "Point",
              "coordinates" : [ -86.862, 36.1552335 ]
            },
            "properties" : {
              "ZIP_CO_PSA" : "37209NSVLTNWM2170LA",
              "WIRELESS_SCORE" : 4,
              "LONGITUDE" : -86.862,
              "LATITUDE" : 36.1552335
            }
        },
        {
            "type" : "Feature",
            "geometry" : {
              "type" : "Point",
              "coordinates" : [ -86.804663, 35.898185 ]
            },
            "properties" : {
              "ZIP_CO_PSA" : "37067FKLNTNMA3133PB",
              "WIRELESS_SCORE" : 4,
              "LONGITUDE" : -86.804663,
              "LATITUDE" : 35.898185
            }
        },
        {
            "type" : "Feature",
            "geometry" : {
              "type" : "Point",
              "coordinates" : [ -87.0492715, 35.6015595 ]
            },
            "properties" : {
              "ZIP_CO_PSA" : "38401CLMATNMA3111PA",
              "WIRELESS_SCORE" : 3,
              "LONGITUDE" : -87.0492715,
              "LATITUDE" : 35.6015595
            }
        },
        {
            "type" : "Feature",
            "geometry" : {
              "type" : "Point",
              "coordinates" : [ -85.86032, 38.098778 ]
            },
            "properties" : {
              "ZIP_CO_PSA" : "40272LSVLKYVS3125LA",
              "WIRELESS_SCORE" : 4,
              "LONGITUDE" : -85.86032,
              "LATITUDE" : 38.098778
            }
        },
        {
            "type" : "Feature",
            "geometry" : {
              "type" : "Point",
              "coordinates" : [ -83.907276, 36.0116625 ]
            },
            "properties" : {
              "ZIP_CO_PSA" : "37917KNVLTNMA2141LA",
              "WIRELESS_SCORE" : 4,
              "LONGITUDE" : -83.907276,
              "LATITUDE" : 36.0116625
            }
        },
        {
            "type" : "Feature",
            "geometry" : {
              "type" : "Point",
              "coordinates" : [ -89.787733, 35.175817 ]
            },
            "properties" : {
              "ZIP_CO_PSA" : "38016MMPHTNGT1261PA",
              "WIRELESS_SCORE" : 3,
              "LONGITUDE" : -89.787733,
              "LATITUDE" : 35.175817
            }
        },
        {
            "type" : "Feature",
            "geometry" : {
              "type" : "Point",
              "coordinates" : [ -86.30927, 39.622445 ]
            },
            "properties" : {
              "ZIP_CO_PSA" : "46113WNTNIN013142LB",
              "WIRELESS_SCORE" : 4,
              "LONGITUDE" : -86.30927,
              "LATITUDE" : 39.622445
            }
        },
        {
            "type" : "Feature",
            "geometry" : {
              "type" : "Point",
              "coordinates" : [ -86.86121, 36.164165 ]
            },
            "properties" : {
              "ZIP_CO_PSA" : "37209NSVLTNST3399LA",
              "WIRELESS_SCORE" : 4,
              "LONGITUDE" : -86.86121,
              "LATITUDE" : 36.164165
            }
        },
        {
            "type" : "Feature",
            "geometry" : {
              "type" : "Point",
              "coordinates" : [ -86.268402, 41.6749145 ]
            },
            "properties" : {
              "ZIP_CO_PSA" : "46601SBNDIN017107LA",
              "WIRELESS_SCORE" : 3,
              "LONGITUDE" : -86.268402,
              "LATITUDE" : 41.6749145
            }
        },
        {
            "type" : "Feature",
            "geometry" : {
              "type" : "Point",
              "coordinates" : [ -86.539983, 35.979794 ]
            },
            "properties" : {
              "ZIP_CO_PSA" : "37167SMYRTNMA4330PD",
              "WIRELESS_SCORE" : 3,
              "LONGITUDE" : -86.539983,
              "LATITUDE" : 35.979794
            }
        },
        {
            "type" : "Feature",
            "geometry" : {
              "type" : "Point",
              "coordinates" : [ -83.972336, 35.970636 ]
            },
            "properties" : {
              "ZIP_CO_PSA" : "37921KNVLTNMA7131LA",
              "WIRELESS_SCORE" : 3,
              "LONGITUDE" : -83.972336,
              "LATITUDE" : 35.970636
            }
        },
        {
            "type" : "Feature",
            "geometry" : {
              "type" : "Point",
              "coordinates" : [ -86.278522, 39.848604 ]
            },
            "properties" : {
              "ZIP_CO_PSA" : "46254IPLSIN074103LC",
              "WIRELESS_SCORE" : 3,
              "LONGITUDE" : -86.278522,
              "LATITUDE" : 39.848604
            }
        },
        {
            "type" : "Feature",
            "geometry" : {
              "type" : "Point",
              "coordinates" : [ -84.8925955, 35.149231 ]
            },
            "properties" : {
              "ZIP_CO_PSA" : "37311CLEVTNMA6103PA",
              "WIRELESS_SCORE" : 3,
              "LONGITUDE" : -84.8925955,
              "LATITUDE" : 35.149231
            }
        },
        {
            "type" : "Feature",
            "geometry" : {
              "type" : "Point",
              "coordinates" : [ -86.448962, 35.496668 ]
            },
            "properties" : {
              "ZIP_CO_PSA" : "37160SHVLTNMA1250PA",
              "WIRELESS_SCORE" : 3,
              "LONGITUDE" : -86.448962,
              "LATITUDE" : 35.496668
            }
        },
        {
            "type" : "Feature",
            "geometry" : {
              "type" : "Point",
              "coordinates" : [ -87.018027, 35.642211 ]
            },
            "properties" : {
              "ZIP_CO_PSA" : "38401CLMATNMA1203PA",
              "WIRELESS_SCORE" : 3,
              "LONGITUDE" : -87.018027,
              "LATITUDE" : 35.642211
            }
        },
        {
            "type" : "Feature",
            "geometry" : {
              "type" : "Point",
              "coordinates" : [ -86.883402, 35.917869 ]
            },
            "properties" : {
              "ZIP_CO_PSA" : "37064FKLNTNMA5102PA",
              "WIRELESS_SCORE" : 3,
              "LONGITUDE" : -86.883402,
              "LATITUDE" : 35.917869
            }
        },
        {
            "type" : "Feature",
            "geometry" : {
              "type" : "Point",
              "coordinates" : [ -87.5004215, 38.031707 ]
            },
            "properties" : {
              "ZIP_CO_PSA" : "47711EVVLIN021312LA",
              "WIRELESS_SCORE" : 3,
              "LONGITUDE" : -87.5004215,
              "LATITUDE" : 38.031707
            }
        },
        {
            "type" : "Feature",
            "geometry" : {
              "type" : "Point",
              "coordinates" : [ -86.7892, 36.1558 ]
            },
            "properties" : {
              "ZIP_CO_PSA" : "37203NSVLTNMT5102PB",
              "WIRELESS_SCORE" : 3,
              "LONGITUDE" : -86.7892,
              "LATITUDE" : 36.1558
            }
        },
        {
            "type" : "Feature",
            "geometry" : {
              "type" : "Point",
              "coordinates" : [ -86.028536, 39.948238 ]
            },
            "properties" : {
              "ZIP_CO_PSA" : "46038FSHRIN011503LA",
              "WIRELESS_SCORE" : 3,
              "LONGITUDE" : -86.028536,
              "LATITUDE" : 39.948238
            }
        },
        {
            "type" : "Feature",
            "geometry" : {
              "type" : "Point",
              "coordinates" : [ -83.345841, 36.203632 ]
            },
            "properties" : {
              "ZIP_CO_PSA" : "37814MRTWTNMA7144PA",
              "WIRELESS_SCORE" : 3,
              "LONGITUDE" : -83.345841,
              "LATITUDE" : 36.203632
            }
        },
        {
            "type" : "Feature",
            "geometry" : {
              "type" : "Point",
              "coordinates" : [ -84.893653, 38.051032 ]
            },
            "properties" : {
              "ZIP_CO_PSA" : "40342LRBGKYMA1108PA",
              "WIRELESS_SCORE" : 4,
              "LONGITUDE" : -84.893653,
              "LATITUDE" : 38.051032
            }
        },
        {
            "type" : "Feature",
            "geometry" : {
              "type" : "Point",
              "coordinates" : [ -87.3709135, 36.637923 ]
            },
            "properties" : {
              "ZIP_CO_PSA" : "37042CLVLTNMA4240PF",
              "WIRELESS_SCORE" : 3,
              "LONGITUDE" : -87.3709135,
              "LATITUDE" : 36.637923
            }
        },
        {
            "type" : "Feature",
            "geometry" : {
              "type" : "Point",
              "coordinates" : [ -87.509554, 37.945758 ]
            },
            "properties" : {
              "ZIP_CO_PSA" : "47714EVVLIN023136LA",
              "WIRELESS_SCORE" : 3,
              "LONGITUDE" : -87.509554,
              "LATITUDE" : 37.945758
            }
        },
        {
            "type" : "Feature",
            "geometry" : {
              "type" : "Point",
              "coordinates" : [ -86.214763, 39.780797 ]
            },
            "properties" : {
              "ZIP_CO_PSA" : "46222IPLSIN015221LA",
              "WIRELESS_SCORE" : 3,
              "LONGITUDE" : -86.214763,
              "LATITUDE" : 39.780797
            }
        },
        {
            "type" : "Feature",
            "geometry" : {
              "type" : "Point",
              "coordinates" : [ -85.7731265, 38.166234 ]
            },
            "properties" : {
              "ZIP_CO_PSA" : "40214LSVLKYBE5216LA",
              "WIRELESS_SCORE" : 3,
              "LONGITUDE" : -85.7731265,
              "LATITUDE" : 38.166234
            }
        },
        {
            "type" : "Feature",
            "geometry" : {
              "type" : "Point",
              "coordinates" : [ -85.251087, 34.946048 ]
            },
            "properties" : {
              "ZIP_CO_PSA" : "30742CHTGTNRO4110LB",
              "WIRELESS_SCORE" : 3,
              "LONGITUDE" : -85.251087,
              "LATITUDE" : 34.946048
            }
        },
        {
            "type" : "Feature",
            "geometry" : {
              "type" : "Point",
              "coordinates" : [ -86.8728835, 36.15822 ]
            },
            "properties" : {
              "ZIP_CO_PSA" : "37209NSVLTNWM2169PA",
              "WIRELESS_SCORE" : 3,
              "LONGITUDE" : -86.8728835,
              "LATITUDE" : 36.15822
            }
        },
        {
            "type" : "Feature",
            "geometry" : {
              "type" : "Point",
              "coordinates" : [ -86.127222, 39.761809 ]
            },
            "properties" : {
              "ZIP_CO_PSA" : "46201IPLSIN012256LA",
              "WIRELESS_SCORE" : 3,
              "LONGITUDE" : -86.127222,
              "LATITUDE" : 39.761809
            }
        },
        {
            "type" : "Feature",
            "geometry" : {
              "type" : "Point",
              "coordinates" : [ -87.339913, 36.528679 ]
            },
            "properties" : {
              "ZIP_CO_PSA" : "37040CLVLTNMA2104LA",
              "WIRELESS_SCORE" : 3,
              "LONGITUDE" : -87.339913,
              "LATITUDE" : 36.528679
            }
        },
        {
            "type" : "Feature",
            "geometry" : {
              "type" : "Point",
              "coordinates" : [ -84.219859, 37.998531 ]
            },
            "properties" : {
              "ZIP_CO_PSA" : "40391WNCHKYMA1218PA",
              "WIRELESS_SCORE" : 4,
              "LONGITUDE" : -84.219859,
              "LATITUDE" : 37.998531
            }
        },
        {
            "type" : "Feature",
            "geometry" : {
              "type" : "Point",
              "coordinates" : [ -87.3678975, 38.003714 ]
            },
            "properties" : {
              "ZIP_CO_PSA" : "47630NWBRIN011505LA",
              "WIRELESS_SCORE" : 4,
              "LONGITUDE" : -87.3678975,
              "LATITUDE" : 38.003714
            }
        },
        {
            "type" : "Feature",
            "geometry" : {
              "type" : "Point",
              "coordinates" : [ -89.724639, 35.172012 ]
            },
            "properties" : {
              "ZIP_CO_PSA" : "38016MMPHTNGT1248PA",
              "WIRELESS_SCORE" : 4,
              "LONGITUDE" : -89.724639,
              "LATITUDE" : 35.172012
            }
        },
        {
            "type" : "Feature",
            "geometry" : {
              "type" : "Point",
              "coordinates" : [ -86.809083, 36.187183 ]
            },
            "properties" : {
              "ZIP_CO_PSA" : "37208NSVLTNMT1207LA",
              "WIRELESS_SCORE" : 3,
              "LONGITUDE" : -86.809083,
              "LATITUDE" : 36.187183
            }
        },
        {
            "type" : "Feature",
            "geometry" : {
              "type" : "Point",
              "coordinates" : [ -88.823341, 35.6205975 ]
            },
            "properties" : {
              "ZIP_CO_PSA" : "38301JCSNTNMA1199PA",
              "WIRELESS_SCORE" : 3,
              "LONGITUDE" : -88.823341,
              "LATITUDE" : 35.6205975
            }
        },
        {
            "type" : "Feature",
            "geometry" : {
              "type" : "Point",
              "coordinates" : [ -85.408434, 40.179879 ]
            },
            "properties" : {
              "ZIP_CO_PSA" : "47302MUNCIN013212PA",
              "WIRELESS_SCORE" : 3,
              "LONGITUDE" : -85.408434,
              "LATITUDE" : 40.179879
            }
        },
        {
            "type" : "Feature",
            "geometry" : {
              "type" : "Point",
              "coordinates" : [ -86.1375185, 39.96693 ]
            },
            "properties" : {
              "ZIP_CO_PSA" : "46032CRMLIN011501PA",
              "WIRELESS_SCORE" : 4,
              "LONGITUDE" : -86.1375185,
              "LATITUDE" : 39.96693
            }
        },
        {
            "type" : "Feature",
            "geometry" : {
              "type" : "Point",
              "coordinates" : [ -86.37782, 41.647302 ]
            },
            "properties" : {
              "ZIP_CO_PSA" : "46619SBNDIN017227LA",
              "WIRELESS_SCORE" : 3,
              "LONGITUDE" : -86.37782,
              "LATITUDE" : 41.647302
            }
        },
        {
            "type" : "Feature",
            "geometry" : {
              "type" : "Point",
              "coordinates" : [ -86.838416, 36.145911 ]
            },
            "properties" : {
              "ZIP_CO_PSA" : "37209NSVLTNST3367LA",
              "WIRELESS_SCORE" : 3,
              "LONGITUDE" : -86.838416,
              "LATITUDE" : 36.145911
            }
        },
        {
            "type" : "Feature",
            "geometry" : {
              "type" : "Point",
              "coordinates" : [ -86.580922, 36.301198 ]
            },
            "properties" : {
              "ZIP_CO_PSA" : "37075HDVLTNMA2154LA",
              "WIRELESS_SCORE" : 4,
              "LONGITUDE" : -86.580922,
              "LATITUDE" : 36.301198
            }
        },
        {
            "type" : "Feature",
            "geometry" : {
              "type" : "Point",
              "coordinates" : [ -86.617972, 36.237643 ]
            },
            "properties" : {
              "ZIP_CO_PSA" : "37138OLHCTNMA2112LA",
              "WIRELESS_SCORE" : 4,
              "LONGITUDE" : -86.617972,
              "LATITUDE" : 36.237643
            }
        },
        {
            "type" : "Feature",
            "geometry" : {
              "type" : "Point",
              "coordinates" : [ -85.792005, 38.236059 ]
            },
            "properties" : {
              "ZIP_CO_PSA" : "40210LSVLKY263137LA",
              "WIRELESS_SCORE" : 3,
              "LONGITUDE" : -85.792005,
              "LATITUDE" : 38.236059
            }
        },
        {
            "type" : "Feature",
            "geometry" : {
              "type" : "Point",
              "coordinates" : [ -86.043888, 39.895119 ]
            },
            "properties" : {
              "ZIP_CO_PSA" : "46256FSHRIN013103LB",
              "WIRELESS_SCORE" : 3,
              "LONGITUDE" : -86.043888,
              "LATITUDE" : 39.895119
            }
        },
        {
            "type" : "Feature",
            "geometry" : {
              "type" : "Point",
              "coordinates" : [ -85.689729, 40.563408 ]
            },
            "properties" : {
              "ZIP_CO_PSA" : "46952MARNIN033108LA",
              "WIRELESS_SCORE" : 4,
              "LONGITUDE" : -85.689729,
              "LATITUDE" : 40.563408
            }
        },
        {
            "type" : "Feature",
            "geometry" : {
              "type" : "Point",
              "coordinates" : [ -86.7109695, 36.0915925 ]
            },
            "properties" : {
              "ZIP_CO_PSA" : "37211NSVLTNCH5324LA",
              "WIRELESS_SCORE" : 4,
              "LONGITUDE" : -86.7109695,
              "LATITUDE" : 36.0915925
            }
        },
        {
            "type" : "Feature",
            "geometry" : {
              "type" : "Point",
              "coordinates" : [ -84.074781, 35.874934 ]
            },
            "properties" : {
              "ZIP_CO_PSA" : "37922KNVLTNWH7256LA",
              "WIRELESS_SCORE" : 4,
              "LONGITUDE" : -84.074781,
              "LATITUDE" : 35.874934
            }
        },
        {
            "type" : "Feature",
            "geometry" : {
              "type" : "Point",
              "coordinates" : [ -83.963722, 35.7211995 ]
            },
            "properties" : {
              "ZIP_CO_PSA" : "37803MAVLTNMA4227PA",
              "WIRELESS_SCORE" : 4,
              "LONGITUDE" : -83.963722,
              "LATITUDE" : 35.7211995
            }
        },
        {
            "type" : "Feature",
            "geometry" : {
              "type" : "Point",
              "coordinates" : [ -87.533301, 37.95163 ]
            },
            "properties" : {
              "ZIP_CO_PSA" : "47714EVVLIN023134LB",
              "WIRELESS_SCORE" : 4,
              "LONGITUDE" : -87.533301,
              "LATITUDE" : 37.95163
            }
        },
        {
            "type" : "Feature",
            "geometry" : {
              "type" : "Point",
              "coordinates" : [ -83.914986, 36.006706 ]
            },
            "properties" : {
              "ZIP_CO_PSA" : "37917KNVLTNMA2124PA",
              "WIRELESS_SCORE" : 3,
              "LONGITUDE" : -83.914986,
              "LATITUDE" : 36.006706
            }
        },
        {
            "type" : "Feature",
            "geometry" : {
              "type" : "Point",
              "coordinates" : [ -86.89505, 40.044096 ]
            },
            "properties" : {
              "ZIP_CO_PSA" : "47933CFVLIN012142PA",
              "WIRELESS_SCORE" : 3,
              "LONGITUDE" : -86.89505,
              "LATITUDE" : 40.044096
            }
        },
        {
            "type" : "Feature",
            "geometry" : {
              "type" : "Point",
              "coordinates" : [ -86.244708, 41.658231 ]
            },
            "properties" : {
              "ZIP_CO_PSA" : "46613SBNDIN015202LC",
              "WIRELESS_SCORE" : 3,
              "LONGITUDE" : -86.244708,
              "LATITUDE" : 41.658231
            }
        },
        {
            "type" : "Feature",
            "geometry" : {
              "type" : "Point",
              "coordinates" : [ -83.866689, 36.019589 ]
            },
            "properties" : {
              "ZIP_CO_PSA" : "37914KNVLTNMA3183LA",
              "WIRELESS_SCORE" : 4,
              "LONGITUDE" : -83.866689,
              "LATITUDE" : 36.019589
            }
        },
        {
            "type" : "Feature",
            "geometry" : {
              "type" : "Point",
              "coordinates" : [ -85.56432, 38.19056 ]
            },
            "properties" : {
              "ZIP_CO_PSA" : "40299LSVLKYJT4121LA",
              "WIRELESS_SCORE" : 4,
              "LONGITUDE" : -85.56432,
              "LATITUDE" : 38.19056
            }
        },
        {
            "type" : "Feature",
            "geometry" : {
              "type" : "Point",
              "coordinates" : [ -88.308882, 36.59969 ]
            },
            "properties" : {
              "ZIP_CO_PSA" : "42071MRRYKYMA4121PA",
              "WIRELESS_SCORE" : 3,
              "LONGITUDE" : -88.308882,
              "LATITUDE" : 36.59969
            }
        },
        {
            "type" : "Feature",
            "geometry" : {
              "type" : "Point",
              "coordinates" : [ -83.503562, 35.853506 ]
            },
            "properties" : {
              "ZIP_CO_PSA" : "37862SVVLTNMT3251PA",
              "WIRELESS_SCORE" : 4,
              "LONGITUDE" : -83.503562,
              "LATITUDE" : 35.853506
            }
        },
        {
            "type" : "Feature",
            "geometry" : {
              "type" : "Point",
              "coordinates" : [ -83.886362, 35.987091 ]
            },
            "properties" : {
              "ZIP_CO_PSA" : "37914KNVLTNMA3122LA",
              "WIRELESS_SCORE" : 4,
              "LONGITUDE" : -83.886362,
              "LATITUDE" : 35.987091
            }
        },
        {
            "type" : "Feature",
            "geometry" : {
              "type" : "Point",
              "coordinates" : [ -85.6389565, 38.267663 ]
            },
            "properties" : {
              "ZIP_CO_PSA" : "40207LSVLKYSM2107LA",
              "WIRELESS_SCORE" : 4,
              "LONGITUDE" : -85.6389565,
              "LATITUDE" : 38.267663
            }
        },
        {
            "type" : "Feature",
            "geometry" : {
              "type" : "Point",
              "coordinates" : [ -83.3954905, 36.182417 ]
            },
            "properties" : {
              "ZIP_CO_PSA" : "37814MRTWTNMA7253PA",
              "WIRELESS_SCORE" : 3,
              "LONGITUDE" : -83.3954905,
              "LATITUDE" : 36.182417
            }
        },
        {
            "type" : "Feature",
            "geometry" : {
              "type" : "Point",
              "coordinates" : [ -86.936085, 36.087085 ]
            },
            "properties" : {
              "ZIP_CO_PSA" : "37221NSVLTNBV1155LA",
              "WIRELESS_SCORE" : 4,
              "LONGITUDE" : -86.936085,
              "LATITUDE" : 36.087085
            }
        },
        {
            "type" : "Feature",
            "geometry" : {
              "type" : "Point",
              "coordinates" : [ -86.127996, 39.836663 ]
            },
            "properties" : {
              "ZIP_CO_PSA" : "46205IPLSIN042117LB",
              "WIRELESS_SCORE" : 3,
              "LONGITUDE" : -86.127996,
              "LATITUDE" : 39.836663
            }
        },
        {
            "type" : "Feature",
            "geometry" : {
              "type" : "Point",
              "coordinates" : [ -86.852645, 36.159297 ]
            },
            "properties" : {
              "ZIP_CO_PSA" : "37209NSVLTNST3392LA",
              "WIRELESS_SCORE" : 4,
              "LONGITUDE" : -86.852645,
              "LATITUDE" : 36.159297
            }
        },
        {
            "type" : "Feature",
            "geometry" : {
              "type" : "Point",
              "coordinates" : [ -89.965011, 35.13913 ]
            },
            "properties" : {
              "ZIP_CO_PSA" : "38112MMPHTNCT8126PA",
              "WIRELESS_SCORE" : 3,
              "LONGITUDE" : -89.965011,
              "LATITUDE" : 35.13913
            }
        },
        {
            "type" : "Feature",
            "geometry" : {
              "type" : "Point",
              "coordinates" : [ -86.796304, 36.126327 ]
            },
            "properties" : {
              "ZIP_CO_PSA" : "37212NSVLTNST1105LC",
              "WIRELESS_SCORE" : 3,
              "LONGITUDE" : -86.796304,
              "LATITUDE" : 36.126327
            }
        },
        {
            "type" : "Feature",
            "geometry" : {
              "type" : "Point",
              "coordinates" : [ -85.818035, 38.243974 ]
            },
            "properties" : {
              "ZIP_CO_PSA" : "40211LSVLKY263521PA",
              "WIRELESS_SCORE" : 4,
              "LONGITUDE" : -85.818035,
              "LATITUDE" : 38.243974
            }
        },
        {
            "type" : "Feature",
            "geometry" : {
              "type" : "Point",
              "coordinates" : [ -86.120703, 39.653182 ]
            },
            "properties" : {
              "ZIP_CO_PSA" : "46227GNWDIN011116LA",
              "WIRELESS_SCORE" : 3,
              "LONGITUDE" : -86.120703,
              "LATITUDE" : 39.653182
            }
        },
        {
            "type" : "Feature",
            "geometry" : {
              "type" : "Point",
              "coordinates" : [ -86.299768, 39.773627 ]
            },
            "properties" : {
              "ZIP_CO_PSA" : "46214IPLSIN182104PA",
              "WIRELESS_SCORE" : 4,
              "LONGITUDE" : -86.299768,
              "LATITUDE" : 39.773627
            }
        },
        {
            "type" : "Feature",
            "geometry" : {
              "type" : "Point",
              "coordinates" : [ -86.786307, 36.173802 ]
            },
            "properties" : {
              "ZIP_CO_PSA" : "37219NSVLTNMT1145PC",
              "WIRELESS_SCORE" : 3,
              "LONGITUDE" : -86.786307,
              "LATITUDE" : 36.173802
            }
        },
        {
            "type" : "Feature",
            "geometry" : {
              "type" : "Point",
              "coordinates" : [ -87.350241, 36.51065 ]
            },
            "properties" : {
              "ZIP_CO_PSA" : "37040CLVLTNMA3104PA",
              "WIRELESS_SCORE" : 3,
              "LONGITUDE" : -87.350241,
              "LATITUDE" : 36.51065
            }
        },
        {
            "type" : "Feature",
            "geometry" : {
              "type" : "Point",
              "coordinates" : [ -84.0118, 35.983449 ]
            },
            "properties" : {
              "ZIP_CO_PSA" : "37921KNVLTNBE1143LB",
              "WIRELESS_SCORE" : 4,
              "LONGITUDE" : -84.0118,
              "LATITUDE" : 35.983449
            }
        },
        {
            "type" : "Feature",
            "geometry" : {
              "type" : "Point",
              "coordinates" : [ -84.837966, 38.1952615 ]
            },
            "properties" : {
              "ZIP_CO_PSA" : "40601FRFTKYMA2417LA",
              "WIRELESS_SCORE" : 3,
              "LONGITUDE" : -84.837966,
              "LATITUDE" : 38.1952615
            }
        },
        {
            "type" : "Feature",
            "geometry" : {
              "type" : "Point",
              "coordinates" : [ -86.244265, 39.843974 ]
            },
            "properties" : {
              "ZIP_CO_PSA" : "46254IPLSIN073115LC",
              "WIRELESS_SCORE" : 3,
              "LONGITUDE" : -86.244265,
              "LATITUDE" : 39.843974
            }
        },
        {
            "type" : "Feature",
            "geometry" : {
              "type" : "Point",
              "coordinates" : [ -87.50794, 37.951945 ]
            },
            "properties" : {
              "ZIP_CO_PSA" : "47714EVVLIN023104LB",
              "WIRELESS_SCORE" : 4,
              "LONGITUDE" : -87.50794,
              "LATITUDE" : 37.951945
            }
        },
        {
            "type" : "Feature",
            "geometry" : {
              "type" : "Point",
              "coordinates" : [ -86.788178, 36.179766 ]
            },
            "properties" : {
              "ZIP_CO_PSA" : "37208NSVLTNMT1147PB",
              "WIRELESS_SCORE" : 3,
              "LONGITUDE" : -86.788178,
              "LATITUDE" : 36.179766
            }
        },
        {
            "type" : "Feature",
            "geometry" : {
              "type" : "Point",
              "coordinates" : [ -85.095732, 35.1110325 ]
            },
            "properties" : {
              "ZIP_CO_PSA" : "37363CHTGTNHT1111PA",
              "WIRELESS_SCORE" : 3,
              "LONGITUDE" : -85.095732,
              "LATITUDE" : 35.1110325
            }
        },
        {
            "type" : "Feature",
            "geometry" : {
              "type" : "Point",
              "coordinates" : [ -83.911898, 35.932269 ]
            },
            "properties" : {
              "ZIP_CO_PSA" : "37920KNVLTNYH5100LA",
              "WIRELESS_SCORE" : 4,
              "LONGITUDE" : -83.911898,
              "LATITUDE" : 35.932269
            }
        },
        {
            "type" : "Feature",
            "geometry" : {
              "type" : "Point",
              "coordinates" : [ -88.8662605, 35.7376 ]
            },
            "properties" : {
              "ZIP_CO_PSA" : "38305JCSNTNNS1225PA",
              "WIRELESS_SCORE" : 4,
              "LONGITUDE" : -88.8662605,
              "LATITUDE" : 35.7376
            }
        },
        {
            "type" : "Feature",
            "geometry" : {
              "type" : "Point",
              "coordinates" : [ -83.223102, 36.2306065 ]
            },
            "properties" : {
              "ZIP_CO_PSA" : "37813MRTWTNMA3240PA",
              "WIRELESS_SCORE" : 3,
              "LONGITUDE" : -83.223102,
              "LATITUDE" : 36.2306065
            }
        },
        {
            "type" : "Feature",
            "geometry" : {
              "type" : "Point",
              "coordinates" : [ -87.026514, 35.623405 ]
            },
            "properties" : {
              "ZIP_CO_PSA" : "38401CLMATNMA1152PA",
              "WIRELESS_SCORE" : 3,
              "LONGITUDE" : -87.026514,
              "LATITUDE" : 35.623405
            }
        },
        {
            "type" : "Feature",
            "geometry" : {
              "type" : "Point",
              "coordinates" : [ -86.7943395, 36.183085 ]
            },
            "properties" : {
              "ZIP_CO_PSA" : "37208NSVLTNMT1144LC",
              "WIRELESS_SCORE" : 3,
              "LONGITUDE" : -86.7943395,
              "LATITUDE" : 36.183085
            }
        },
        {
            "type" : "Feature",
            "geometry" : {
              "type" : "Point",
              "coordinates" : [ -86.23132, 39.721523 ]
            },
            "properties" : {
              "ZIP_CO_PSA" : "46241IPLSIN082136LA",
              "WIRELESS_SCORE" : 3,
              "LONGITUDE" : -86.23132,
              "LATITUDE" : 39.721523
            }
        },
        {
            "type" : "Feature",
            "geometry" : {
              "type" : "Point",
              "coordinates" : [ -86.724176, 36.105544 ]
            },
            "properties" : {
              "ZIP_CO_PSA" : "37211NSVLTNCH1125PA",
              "WIRELESS_SCORE" : 3,
              "LONGITUDE" : -86.724176,
              "LATITUDE" : 36.105544
            }
        },
        {
            "type" : "Feature",
            "geometry" : {
              "type" : "Point",
              "coordinates" : [ -87.52424, 37.952226 ]
            },
            "properties" : {
              "ZIP_CO_PSA" : "47714EVVLIN023116LA",
              "WIRELESS_SCORE" : 3,
              "LONGITUDE" : -87.52424,
              "LATITUDE" : 37.952226
            }
        },
        {
            "type" : "Feature",
            "geometry" : {
              "type" : "Point",
              "coordinates" : [ -90.067334, 34.98728 ]
            },
            "properties" : {
              "ZIP_CO_PSA" : "38671MMPHTNSL5331PA",
              "WIRELESS_SCORE" : 4,
              "LONGITUDE" : -90.067334,
              "LATITUDE" : 34.98728
            }
        },
        {
            "type" : "Feature",
            "geometry" : {
              "type" : "Point",
              "coordinates" : [ -86.15167, 39.61462 ]
            },
            "properties" : {
              "ZIP_CO_PSA" : "46142GNWDIN015119LC",
              "WIRELESS_SCORE" : 5,
              "LONGITUDE" : -86.15167,
              "LATITUDE" : 39.61462
            }
        },
        {
            "type" : "Feature",
            "geometry" : {
              "type" : "Point",
              "coordinates" : [ -89.753351, 35.207625 ]
            },
            "properties" : {
              "ZIP_CO_PSA" : "38002MMPHTNBA2234PA",
              "WIRELESS_SCORE" : 4,
              "LONGITUDE" : -89.753351,
              "LATITUDE" : 35.207625
            }
        },
        {
            "type" : "Feature",
            "geometry" : {
              "type" : "Point",
              "coordinates" : [ -86.6980895, 36.2522895 ]
            },
            "properties" : {
              "ZIP_CO_PSA" : "37115NSVLTNMC3132PA",
              "WIRELESS_SCORE" : 3,
              "LONGITUDE" : -86.6980895,
              "LATITUDE" : 36.2522895
            }
        },
        {
            "type" : "Feature",
            "geometry" : {
              "type" : "Point",
              "coordinates" : [ -86.446974, 35.838894 ]
            },
            "properties" : {
              "ZIP_CO_PSA" : "37128MRBOTNMA4254PF",
              "WIRELESS_SCORE" : 3,
              "LONGITUDE" : -86.446974,
              "LATITUDE" : 35.838894
            }
        },
        {
            "type" : "Feature",
            "geometry" : {
              "type" : "Point",
              "coordinates" : [ -86.526343, 40.285058 ]
            },
            "properties" : {
              "ZIP_CO_PSA" : "46041FRFTIN011104PB",
              "WIRELESS_SCORE" : 4,
              "LONGITUDE" : -86.526343,
              "LATITUDE" : 40.285058
            }
        },
        {
            "type" : "Feature",
            "geometry" : {
              "type" : "Point",
              "coordinates" : [ -85.792334, 38.148454 ]
            },
            "properties" : {
              "ZIP_CO_PSA" : "40214LSVLKYBE5814PA",
              "WIRELESS_SCORE" : 3,
              "LONGITUDE" : -85.792334,
              "LATITUDE" : 38.148454
            }
        },
        {
            "type" : "Feature",
            "geometry" : {
              "type" : "Point",
              "coordinates" : [ -85.7974385, 38.2614475 ]
            },
            "properties" : {
              "ZIP_CO_PSA" : "40212LSVLKY261106PA",
              "WIRELESS_SCORE" : 3,
              "LONGITUDE" : -85.7974385,
              "LATITUDE" : 38.2614475
            }
        },
        {
            "type" : "Feature",
            "geometry" : {
              "type" : "Point",
              "coordinates" : [ -85.808674, 38.241035 ]
            },
            "properties" : {
              "ZIP_CO_PSA" : "40211LSVLKY263517LA",
              "WIRELESS_SCORE" : 3,
              "LONGITUDE" : -85.808674,
              "LATITUDE" : 38.241035
            }
        },
        {
            "type" : "Feature",
            "geometry" : {
              "type" : "Point",
              "coordinates" : [ -86.2853665, 36.2260185 ]
            },
            "properties" : {
              "ZIP_CO_PSA" : "37087LBNNTNMA1107PC",
              "WIRELESS_SCORE" : 3,
              "LONGITUDE" : -86.2853665,
              "LATITUDE" : 36.2260185
            }
        },
        {
            "type" : "Feature",
            "geometry" : {
              "type" : "Point",
              "coordinates" : [ -85.3798185, 40.1836355 ]
            },
            "properties" : {
              "ZIP_CO_PSA" : "47302MUNCIN013154PA",
              "WIRELESS_SCORE" : 4,
              "LONGITUDE" : -85.3798185,
              "LATITUDE" : 40.1836355
            }
        },
        {
            "type" : "Feature",
            "geometry" : {
              "type" : "Point",
              "coordinates" : [ -86.906357, 36.126999 ]
            },
            "properties" : {
              "ZIP_CO_PSA" : "37209NSVLTNWM1107PB",
              "WIRELESS_SCORE" : 3,
              "LONGITUDE" : -86.906357,
              "LATITUDE" : 36.126999
            }
        },
        {
            "type" : "Feature",
            "geometry" : {
              "type" : "Point",
              "coordinates" : [ -85.875397, 38.10567 ]
            },
            "properties" : {
              "ZIP_CO_PSA" : "40272LSVLKYVS3129LA",
              "WIRELESS_SCORE" : 4,
              "LONGITUDE" : -85.875397,
              "LATITUDE" : 38.10567
            }
        },
        {
            "type" : "Feature",
            "geometry" : {
              "type" : "Point",
              "coordinates" : [ -87.49038, 37.95242 ]
            },
            "properties" : {
              "ZIP_CO_PSA" : "47715EVVLIN022512LB",
              "WIRELESS_SCORE" : 3,
              "LONGITUDE" : -87.49038,
              "LATITUDE" : 37.95242
            }
        },
        {
            "type" : "Feature",
            "geometry" : {
              "type" : "Point",
              "coordinates" : [ -83.290576, 36.241987 ]
            },
            "properties" : {
              "ZIP_CO_PSA" : "37814MRTWTNMA1126PA",
              "WIRELESS_SCORE" : 4,
              "LONGITUDE" : -83.290576,
              "LATITUDE" : 36.241987
            }
        },
        {
            "type" : "Feature",
            "geometry" : {
              "type" : "Point",
              "coordinates" : [ -86.569385, 35.963419 ]
            },
            "properties" : {
              "ZIP_CO_PSA" : "37167SMYRTNMA4339LA",
              "WIRELESS_SCORE" : 4,
              "LONGITUDE" : -86.569385,
              "LATITUDE" : 35.963419
            }
        },
        {
            "type" : "Feature",
            "geometry" : {
              "type" : "Point",
              "coordinates" : [ -84.053999, 35.957905 ]
            },
            "properties" : {
              "ZIP_CO_PSA" : "37923KNVLTNWH1114LA",
              "WIRELESS_SCORE" : 3,
              "LONGITUDE" : -84.053999,
              "LATITUDE" : 35.957905
            }
        },
        {
            "type" : "Feature",
            "geometry" : {
              "type" : "Point",
              "coordinates" : [ -87.351744, 36.520093 ]
            },
            "properties" : {
              "ZIP_CO_PSA" : "37040CLVLTNMA3102LB",
              "WIRELESS_SCORE" : 3,
              "LONGITUDE" : -87.351744,
              "LATITUDE" : 36.520093
            }
        },
        {
            "type" : "Feature",
            "geometry" : {
              "type" : "Point",
              "coordinates" : [ -84.85504, 35.216047 ]
            },
            "properties" : {
              "ZIP_CO_PSA" : "37312CLEVTNMA1116PA",
              "WIRELESS_SCORE" : 3,
              "LONGITUDE" : -84.85504,
              "LATITUDE" : 35.216047
            }
        },
        {
            "type" : "Feature",
            "geometry" : {
              "type" : "Point",
              "coordinates" : [ -87.040982, 35.6056245 ]
            },
            "properties" : {
              "ZIP_CO_PSA" : "38401CLMATNMA3106PA",
              "WIRELESS_SCORE" : 3,
              "LONGITUDE" : -87.040982,
              "LATITUDE" : 35.6056245
            }
        },
        {
            "type" : "Feature",
            "geometry" : {
              "type" : "Point",
              "coordinates" : [ -87.028145, 35.6082 ]
            },
            "properties" : {
              "ZIP_CO_PSA" : "38401CLMATNMA2130PA",
              "WIRELESS_SCORE" : 3,
              "LONGITUDE" : -87.028145,
              "LATITUDE" : 35.6082
            }
        },
        {
            "type" : "Feature",
            "geometry" : {
              "type" : "Point",
              "coordinates" : [ -85.7653245, 38.1941095 ]
            },
            "properties" : {
              "ZIP_CO_PSA" : "40214LSVLKYBE2102LA",
              "WIRELESS_SCORE" : 3,
              "LONGITUDE" : -85.7653245,
              "LATITUDE" : 38.1941095
            }
        },
        {
            "type" : "Feature",
            "geometry" : {
              "type" : "Point",
              "coordinates" : [ -85.8236, 38.247874 ]
            },
            "properties" : {
              "ZIP_CO_PSA" : "40211LSVLKY264206LA",
              "WIRELESS_SCORE" : 3,
              "LONGITUDE" : -85.8236,
              "LATITUDE" : 38.247874
            }
        },
        {
            "type" : "Feature",
            "geometry" : {
              "type" : "Point",
              "coordinates" : [ -89.7890615, 35.0284195 ]
            },
            "properties" : {
              "ZIP_CO_PSA" : "38125MMPHTNGT5349PA",
              "WIRELESS_SCORE" : 4,
              "LONGITUDE" : -89.7890615,
              "LATITUDE" : 35.0284195
            }
        },
        {
            "type" : "Feature",
            "geometry" : {
              "type" : "Point",
              "coordinates" : [ -87.569867, 38.024661 ]
            },
            "properties" : {
              "ZIP_CO_PSA" : "47710EVVLIN031126LB",
              "WIRELESS_SCORE" : 4,
              "LONGITUDE" : -87.569867,
              "LATITUDE" : 38.024661
            }
        },
        {
            "type" : "Feature",
            "geometry" : {
              "type" : "Point",
              "coordinates" : [ -86.1437155, 39.5961505 ]
            },
            "properties" : {
              "ZIP_CO_PSA" : "46143GNWDIN014110PB",
              "WIRELESS_SCORE" : 3,
              "LONGITUDE" : -86.1437155,
              "LATITUDE" : 39.5961505
            }
        },
        {
            "type" : "Feature",
            "geometry" : {
              "type" : "Point",
              "coordinates" : [ -86.3981115, 35.8685005 ]
            },
            "properties" : {
              "ZIP_CO_PSA" : "37129MRBOTNMA4142PA",
              "WIRELESS_SCORE" : 3,
              "LONGITUDE" : -86.3981115,
              "LATITUDE" : 35.8685005
            }
        },
        {
            "type" : "Feature",
            "geometry" : {
              "type" : "Point",
              "coordinates" : [ -88.83449, 35.6650935 ]
            },
            "properties" : {
              "ZIP_CO_PSA" : "38305JCSNTNNS3112PA",
              "WIRELESS_SCORE" : 3,
              "LONGITUDE" : -88.83449,
              "LATITUDE" : 35.6650935
            }
        },
        {
            "type" : "Feature",
            "geometry" : {
              "type" : "Point",
              "coordinates" : [ -83.293593, 36.20464 ]
            },
            "properties" : {
              "ZIP_CO_PSA" : "37813MRTWTNMA6103PA",
              "WIRELESS_SCORE" : 3,
              "LONGITUDE" : -83.293593,
              "LATITUDE" : 36.20464
            }
        },
        {
            "type" : "Feature",
            "geometry" : {
              "type" : "Point",
              "coordinates" : [ -86.0195135, 39.966807 ]
            },
            "properties" : {
              "ZIP_CO_PSA" : "46038FSHRIN011214LA",
              "WIRELESS_SCORE" : 4,
              "LONGITUDE" : -86.0195135,
              "LATITUDE" : 39.966807
            }
        },
        {
            "type" : "Feature",
            "geometry" : {
              "type" : "Point",
              "coordinates" : [ -86.704945, 36.240235 ]
            },
            "properties" : {
              "ZIP_CO_PSA" : "37214NSVLTNDO1138LA",
              "WIRELESS_SCORE" : 4,
              "LONGITUDE" : -86.704945,
              "LATITUDE" : 36.240235
            }
        },
        {
            "type" : "Feature",
            "geometry" : {
              "type" : "Point",
              "coordinates" : [ -87.50255, 38.00617 ]
            },
            "properties" : {
              "ZIP_CO_PSA" : "47715EVVLIN022205LA",
              "WIRELESS_SCORE" : 3,
              "LONGITUDE" : -87.50255,
              "LATITUDE" : 38.00617
            }
        },
        {
            "type" : "Feature",
            "geometry" : {
              "type" : "Point",
              "coordinates" : [ -86.707764, 36.260034 ]
            },
            "properties" : {
              "ZIP_CO_PSA" : "37115NSVLTNMC2103PA",
              "WIRELESS_SCORE" : 4,
              "LONGITUDE" : -86.707764,
              "LATITUDE" : 36.260034
            }
        },
        {
            "type" : "Feature",
            "geometry" : {
              "type" : "Point",
              "coordinates" : [ -84.16328, 36.32049 ]
            },
            "properties" : {
              "ZIP_CO_PSA" : "37757LFLTTNMA5225PA",
              "WIRELESS_SCORE" : 3,
              "LONGITUDE" : -84.16328,
              "LATITUDE" : 36.32049
            }
        },
        {
            "type" : "Feature",
            "geometry" : {
              "type" : "Point",
              "coordinates" : [ -87.5348785, 37.9579545 ]
            },
            "properties" : {
              "ZIP_CO_PSA" : "47714EVVLIN023134LA",
              "WIRELESS_SCORE" : 3,
              "LONGITUDE" : -87.5348785,
              "LATITUDE" : 37.9579545
            }
        },
        {
            "type" : "Feature",
            "geometry" : {
              "type" : "Point",
              "coordinates" : [ -85.7932265, 38.136778 ]
            },
            "properties" : {
              "ZIP_CO_PSA" : "40214LSVLKYBE5832PA",
              "WIRELESS_SCORE" : 3,
              "LONGITUDE" : -85.7932265,
              "LATITUDE" : 38.136778
            }
        },
        {
            "type" : "Feature",
            "geometry" : {
              "type" : "Point",
              "coordinates" : [ -89.783184, 35.172534 ]
            },
            "properties" : {
              "ZIP_CO_PSA" : "38016MMPHTNGT1263LA",
              "WIRELESS_SCORE" : 3,
              "LONGITUDE" : -89.783184,
              "LATITUDE" : 35.172534
            }
        },
        {
            "type" : "Feature",
            "geometry" : {
              "type" : "Point",
              "coordinates" : [ -88.808178, 35.570832 ]
            },
            "properties" : {
              "ZIP_CO_PSA" : "38301JCSNTNMA5122PA",
              "WIRELESS_SCORE" : 3,
              "LONGITUDE" : -88.808178,
              "LATITUDE" : 35.570832
            }
        },
        {
            "type" : "Feature",
            "geometry" : {
              "type" : "Point",
              "coordinates" : [ -90.058595, 35.0138785 ]
            },
            "properties" : {
              "ZIP_CO_PSA" : "38109MMPHTNWW3235PA",
              "WIRELESS_SCORE" : 3,
              "LONGITUDE" : -90.058595,
              "LATITUDE" : 35.0138785
            }
        },
        {
            "type" : "Feature",
            "geometry" : {
              "type" : "Point",
              "coordinates" : [ -86.1085875, 39.7831345 ]
            },
            "properties" : {
              "ZIP_CO_PSA" : "46201IPLSIN012223LA",
              "WIRELESS_SCORE" : 3,
              "LONGITUDE" : -86.1085875,
              "LATITUDE" : 39.7831345
            }
        },
        {
            "type" : "Feature",
            "geometry" : {
              "type" : "Point",
              "coordinates" : [ -85.733723, 38.3381 ]
            },
            "properties" : {
              "ZIP_CO_PSA" : "47130JFVLIN011117LA",
              "WIRELESS_SCORE" : 3,
              "LONGITUDE" : -85.733723,
              "LATITUDE" : 38.3381
            }
        },
        {
            "type" : "Feature",
            "geometry" : {
              "type" : "Point",
              "coordinates" : [ -86.142587, 39.8724355 ]
            },
            "properties" : {
              "ZIP_CO_PSA" : "46220IPLSIN041106LD",
              "WIRELESS_SCORE" : 4,
              "LONGITUDE" : -86.142587,
              "LATITUDE" : 39.8724355
            }
        },
        {
            "type" : "Feature",
            "geometry" : {
              "type" : "Point",
              "coordinates" : [ -87.553416, 38.014782 ]
            },
            "properties" : {
              "ZIP_CO_PSA" : "47711EVVLIN031153LA",
              "WIRELESS_SCORE" : 3,
              "LONGITUDE" : -87.553416,
              "LATITUDE" : 38.014782
            }
        },
        {
            "type" : "Feature",
            "geometry" : {
              "type" : "Point",
              "coordinates" : [ -87.5195, 38.031106 ]
            },
            "properties" : {
              "ZIP_CO_PSA" : "47711EVVLIN021314LA",
              "WIRELESS_SCORE" : 3,
              "LONGITUDE" : -87.5195,
              "LATITUDE" : 38.031106
            }
        },
        {
            "type" : "Feature",
            "geometry" : {
              "type" : "Point",
              "coordinates" : [ -87.516409, 37.951119 ]
            },
            "properties" : {
              "ZIP_CO_PSA" : "47714EVVLIN023114LA",
              "WIRELESS_SCORE" : 3,
              "LONGITUDE" : -87.516409,
              "LATITUDE" : 37.951119
            }
        },
        {
            "type" : "Feature",
            "geometry" : {
              "type" : "Point",
              "coordinates" : [ -88.631514, 36.732486 ]
            },
            "properties" : {
              "ZIP_CO_PSA" : "42066MYFDKYMA3123PA",
              "WIRELESS_SCORE" : 3,
              "LONGITUDE" : -88.631514,
              "LATITUDE" : 36.732486
            }
        },
        {
            "type" : "Feature",
            "geometry" : {
              "type" : "Point",
              "coordinates" : [ -89.754678, 35.154583 ]
            },
            "properties" : {
              "ZIP_CO_PSA" : "38018MMPHTNGT1253PA",
              "WIRELESS_SCORE" : 4,
              "LONGITUDE" : -89.754678,
              "LATITUDE" : 35.154583
            }
        },
        {
            "type" : "Feature",
            "geometry" : {
              "type" : "Point",
              "coordinates" : [ -86.208214, 41.668385 ]
            },
            "properties" : {
              "ZIP_CO_PSA" : "46615SBNDIN013115LA",
              "WIRELESS_SCORE" : 4,
              "LONGITUDE" : -86.208214,
              "LATITUDE" : 41.668385
            }
        },
        {
            "type" : "Feature",
            "geometry" : {
              "type" : "Point",
              "coordinates" : [ -86.7455405, 36.2631725 ]
            },
            "properties" : {
              "ZIP_CO_PSA" : "37115NSVLTNMC4109PA",
              "WIRELESS_SCORE" : 4,
              "LONGITUDE" : -86.7455405,
              "LATITUDE" : 36.2631725
            }
        },
        {
            "type" : "Feature",
            "geometry" : {
              "type" : "Point",
              "coordinates" : [ -86.861982, 35.888467 ]
            },
            "properties" : {
              "ZIP_CO_PSA" : "37064FKLNTNMA4110PA",
              "WIRELESS_SCORE" : 3,
              "LONGITUDE" : -86.861982,
              "LATITUDE" : 35.888467
            }
        },
        {
            "type" : "Feature",
            "geometry" : {
              "type" : "Point",
              "coordinates" : [ -85.305509, 34.937898 ]
            },
            "properties" : {
              "ZIP_CO_PSA" : "30741CHTGTNRO4410PA",
              "WIRELESS_SCORE" : 3,
              "LONGITUDE" : -85.305509,
              "LATITUDE" : 34.937898
            }
        },
        {
            "type" : "Feature",
            "geometry" : {
              "type" : "Point",
              "coordinates" : [ -87.525069, 37.966011 ]
            },
            "properties" : {
              "ZIP_CO_PSA" : "47714EVVLIN024106LA",
              "WIRELESS_SCORE" : 3,
              "LONGITUDE" : -87.525069,
              "LATITUDE" : 37.966011
            }
        },
        {
            "type" : "Feature",
            "geometry" : {
              "type" : "Point",
              "coordinates" : [ -85.8398875, 38.1687125 ]
            },
            "properties" : {
              "ZIP_CO_PSA" : "40216LSVLKYSH2125LA",
              "WIRELESS_SCORE" : 4,
              "LONGITUDE" : -85.8398875,
              "LATITUDE" : 38.1687125
            }
        },
        {
            "type" : "Feature",
            "geometry" : {
              "type" : "Point",
              "coordinates" : [ -85.7962035, 38.2111875 ]
            },
            "properties" : {
              "ZIP_CO_PSA" : "40216LSVLKY263245LA",
              "WIRELESS_SCORE" : 3,
              "LONGITUDE" : -85.7962035,
              "LATITUDE" : 38.2111875
            }
        },
        {
            "type" : "Feature",
            "geometry" : {
              "type" : "Point",
              "coordinates" : [ -89.803231, 35.044794 ]
            },
            "properties" : {
              "ZIP_CO_PSA" : "38125MMPHTNGT5307PB",
              "WIRELESS_SCORE" : 3,
              "LONGITUDE" : -89.803231,
              "LATITUDE" : 35.044794
            }
        },
        {
            "type" : "Feature",
            "geometry" : {
              "type" : "Point",
              "coordinates" : [ -85.197705, 35.154278 ]
            },
            "properties" : {
              "ZIP_CO_PSA" : "37343CHTGTNMV4107PA",
              "WIRELESS_SCORE" : 3,
              "LONGITUDE" : -85.197705,
              "LATITUDE" : 35.154278
            }
        },
        {
            "type" : "Feature",
            "geometry" : {
              "type" : "Point",
              "coordinates" : [ -85.709239, 38.162436 ]
            },
            "properties" : {
              "ZIP_CO_PSA" : "40213LSVLKYOA1212LB",
              "WIRELESS_SCORE" : 3,
              "LONGITUDE" : -85.709239,
              "LATITUDE" : 38.162436
            }
        },
        {
            "type" : "Feature",
            "geometry" : {
              "type" : "Point",
              "coordinates" : [ -87.540066, 37.960507 ]
            },
            "properties" : {
              "ZIP_CO_PSA" : "47714EVVLIN024116LA",
              "WIRELESS_SCORE" : 3,
              "LONGITUDE" : -87.540066,
              "LATITUDE" : 37.960507
            }
        },
        {
            "type" : "Feature",
            "geometry" : {
              "type" : "Point",
              "coordinates" : [ -84.8801445, 35.126394 ]
            },
            "properties" : {
              "ZIP_CO_PSA" : "37323CLEVTNMA4114PA",
              "WIRELESS_SCORE" : 3,
              "LONGITUDE" : -84.8801445,
              "LATITUDE" : 35.126394
            }
        },
        {
            "type" : "Feature",
            "geometry" : {
              "type" : "Point",
              "coordinates" : [ -86.091425, 39.812709 ]
            },
            "properties" : {
              "ZIP_CO_PSA" : "46218IPLSIN023104LA",
              "WIRELESS_SCORE" : 3,
              "LONGITUDE" : -86.091425,
              "LATITUDE" : 39.812709
            }
        },
        {
            "type" : "Feature",
            "geometry" : {
              "type" : "Point",
              "coordinates" : [ -84.308178, 38.38877 ]
            },
            "properties" : {
              "ZIP_CO_PSA" : "41031CYNTKYMA4103PA",
              "WIRELESS_SCORE" : 3,
              "LONGITUDE" : -84.308178,
              "LATITUDE" : 38.38877
            }
        },
        {
            "type" : "Feature",
            "geometry" : {
              "type" : "Point",
              "coordinates" : [ -88.66347, 35.434076 ]
            },
            "properties" : {
              "ZIP_CO_PSA" : "38340HNSNTNMT5103PA",
              "WIRELESS_SCORE" : 4,
              "LONGITUDE" : -88.66347,
              "LATITUDE" : 35.434076
            }
        },
        {
            "type" : "Feature",
            "geometry" : {
              "type" : "Point",
              "coordinates" : [ -87.033337, 35.6006045 ]
            },
            "properties" : {
              "ZIP_CO_PSA" : "38401CLMATNMA3112PA",
              "WIRELESS_SCORE" : 3,
              "LONGITUDE" : -87.033337,
              "LATITUDE" : 35.6006045
            }
        },
        {
            "type" : "Feature",
            "geometry" : {
              "type" : "Point",
              "coordinates" : [ -87.4091495, 36.595975 ]
            },
            "properties" : {
              "ZIP_CO_PSA" : "37042CLVLTNMA4268LA",
              "WIRELESS_SCORE" : 4,
              "LONGITUDE" : -87.4091495,
              "LATITUDE" : 36.595975
            }
        },
        {
            "type" : "Feature",
            "geometry" : {
              "type" : "Point",
              "coordinates" : [ -86.7143505, 36.0828 ]
            },
            "properties" : {
              "ZIP_CO_PSA" : "37211NSVLTNCH5317LC",
              "WIRELESS_SCORE" : 3,
              "LONGITUDE" : -86.7143505,
              "LATITUDE" : 36.0828
            }
        },
        {
            "type" : "Feature",
            "geometry" : {
              "type" : "Point",
              "coordinates" : [ -86.0210545, 39.787147 ]
            },
            "properties" : {
              "ZIP_CO_PSA" : "46219IPLSIN104119LC",
              "WIRELESS_SCORE" : 3,
              "LONGITUDE" : -86.0210545,
              "LATITUDE" : 39.787147
            }
        },
        {
            "type" : "Feature",
            "geometry" : {
              "type" : "Point",
              "coordinates" : [ -87.514384, 37.9739265 ]
            },
            "properties" : {
              "ZIP_CO_PSA" : "47714EVVLIN022102LA",
              "WIRELESS_SCORE" : 3,
              "LONGITUDE" : -87.514384,
              "LATITUDE" : 37.9739265
            }
        },
        {
            "type" : "Feature",
            "geometry" : {
              "type" : "Point",
              "coordinates" : [ -86.811654, 35.868837 ]
            },
            "properties" : {
              "ZIP_CO_PSA" : "37064FKLNTNMA4131PB",
              "WIRELESS_SCORE" : 4,
              "LONGITUDE" : -86.811654,
              "LATITUDE" : 35.868837
            }
        },
        {
            "type" : "Feature",
            "geometry" : {
              "type" : "Point",
              "coordinates" : [ -86.4657505, 35.464521 ]
            },
            "properties" : {
              "ZIP_CO_PSA" : "37160SHVLTNMA3124PA",
              "WIRELESS_SCORE" : 3,
              "LONGITUDE" : -86.4657505,
              "LATITUDE" : 35.464521
            }
        },
        {
            "type" : "Feature",
            "geometry" : {
              "type" : "Point",
              "coordinates" : [ -86.44817, 35.481642 ]
            },
            "properties" : {
              "ZIP_CO_PSA" : "37160SHVLTNMA2127PA",
              "WIRELESS_SCORE" : 3,
              "LONGITUDE" : -86.44817,
              "LATITUDE" : 35.481642
            }
        },
        {
            "type" : "Feature",
            "geometry" : {
              "type" : "Point",
              "coordinates" : [ -86.826579, 36.149342 ]
            },
            "properties" : {
              "ZIP_CO_PSA" : "37209NSVLTNST3355LC",
              "WIRELESS_SCORE" : 3,
              "LONGITUDE" : -86.826579,
              "LATITUDE" : 36.149342
            }
        },
        {
            "type" : "Feature",
            "geometry" : {
              "type" : "Point",
              "coordinates" : [ -85.767782, 38.1385845 ]
            },
            "properties" : {
              "ZIP_CO_PSA" : "40214LSVLKYBE5901LA",
              "WIRELESS_SCORE" : 3,
              "LONGITUDE" : -85.767782,
              "LATITUDE" : 38.1385845
            }
        },
        {
            "type" : "Feature",
            "geometry" : {
              "type" : "Point",
              "coordinates" : [ -85.807156, 38.244917 ]
            },
            "properties" : {
              "ZIP_CO_PSA" : "40211LSVLKY263502PB",
              "WIRELESS_SCORE" : 3,
              "LONGITUDE" : -85.807156,
              "LATITUDE" : 38.244917
            }
        },
        {
            "type" : "Feature",
            "geometry" : {
              "type" : "Point",
              "coordinates" : [ -86.6784495, 36.0344075 ]
            },
            "properties" : {
              "ZIP_CO_PSA" : "37013NSVLTNCH5390LA",
              "WIRELESS_SCORE" : 3,
              "LONGITUDE" : -86.6784495,
              "LATITUDE" : 36.0344075
            }
        },
        {
            "type" : "Feature",
            "geometry" : {
              "type" : "Point",
              "coordinates" : [ -90.002317, 35.131758 ]
            },
            "properties" : {
              "ZIP_CO_PSA" : "38104MMPHTNMT5223LA",
              "WIRELESS_SCORE" : 3,
              "LONGITUDE" : -90.002317,
              "LATITUDE" : 35.131758
            }
        },
        {
            "type" : "Feature",
            "geometry" : {
              "type" : "Point",
              "coordinates" : [ -85.742871, 38.2932135 ]
            },
            "properties" : {
              "ZIP_CO_PSA" : "47130JFVLIN011110LB",
              "WIRELESS_SCORE" : 3,
              "LONGITUDE" : -85.742871,
              "LATITUDE" : 38.2932135
            }
        },
        {
            "type" : "Feature",
            "geometry" : {
              "type" : "Point",
              "coordinates" : [ -86.767463, 36.136434 ]
            },
            "properties" : {
              "ZIP_CO_PSA" : "37203NSVLTNMT4113LA",
              "WIRELESS_SCORE" : 3,
              "LONGITUDE" : -86.767463,
              "LATITUDE" : 36.136434
            }
        },
        {
            "type" : "Feature",
            "geometry" : {
              "type" : "Point",
              "coordinates" : [ -86.689947, 36.053385 ]
            },
            "properties" : {
              "ZIP_CO_PSA" : "37013NSVLTNCH5384LA",
              "WIRELESS_SCORE" : 3,
              "LONGITUDE" : -86.689947,
              "LATITUDE" : 36.053385
            }
        },
        {
            "type" : "Feature",
            "geometry" : {
              "type" : "Point",
              "coordinates" : [ -86.4004725, 39.705529 ]
            },
            "properties" : {
              "ZIP_CO_PSA" : "46168PLFDIN014103LA",
              "WIRELESS_SCORE" : 3,
              "LONGITUDE" : -86.4004725,
              "LATITUDE" : 39.705529
            }
        },
        {
            "type" : "Feature",
            "geometry" : {
              "type" : "Point",
              "coordinates" : [ -86.14436, 39.95775 ]
            },
            "properties" : {
              "ZIP_CO_PSA" : "46032CRMLIN011503PA",
              "WIRELESS_SCORE" : 3,
              "LONGITUDE" : -86.14436,
              "LATITUDE" : 39.95775
            }
        },
        {
            "type" : "Feature",
            "geometry" : {
              "type" : "Point",
              "coordinates" : [ -85.799139, 38.2386825 ]
            },
            "properties" : {
              "ZIP_CO_PSA" : "40211LSVLKY263111LA",
              "WIRELESS_SCORE" : 3,
              "LONGITUDE" : -85.799139,
              "LATITUDE" : 38.2386825
            }
        },
        {
            "type" : "Feature",
            "geometry" : {
              "type" : "Point",
              "coordinates" : [ -89.983362, 34.9152965 ]
            },
            "properties" : {
              "ZIP_CO_PSA" : "38672HRNNMSDS1310PA",
              "WIRELESS_SCORE" : 3,
              "LONGITUDE" : -89.983362,
              "LATITUDE" : 34.9152965
            }
        },
        {
            "type" : "Feature",
            "geometry" : {
              "type" : "Point",
              "coordinates" : [ -89.766496, 35.15635 ]
            },
            "properties" : {
              "ZIP_CO_PSA" : "38018MMPHTNGT1275PA",
              "WIRELESS_SCORE" : 3,
              "LONGITUDE" : -89.766496,
              "LATITUDE" : 35.15635
            }
        },
        {
            "type" : "Feature",
            "geometry" : {
              "type" : "Point",
              "coordinates" : [ -84.15137, 36.90694 ]
            },
            "properties" : {
              "ZIP_CO_PSA" : "40701CRBNKYMA5201PA",
              "WIRELESS_SCORE" : 3,
              "LONGITUDE" : -84.15137,
              "LATITUDE" : 36.90694
            }
        },
        {
            "type" : "Feature",
            "geometry" : {
              "type" : "Point",
              "coordinates" : [ -86.8484685, 36.115699 ]
            },
            "properties" : {
              "ZIP_CO_PSA" : "37205NSVLTNST3341LA",
              "WIRELESS_SCORE" : 3,
              "LONGITUDE" : -86.8484685,
              "LATITUDE" : 36.115699
            }
        },
        {
            "type" : "Feature",
            "geometry" : {
              "type" : "Point",
              "coordinates" : [ -88.839712, 35.64645 ]
            },
            "properties" : {
              "ZIP_CO_PSA" : "38301JCSNTNNS3120PA",
              "WIRELESS_SCORE" : 3,
              "LONGITUDE" : -88.839712,
              "LATITUDE" : 35.64645
            }
        },
        {
            "type" : "Feature",
            "geometry" : {
              "type" : "Point",
              "coordinates" : [ -87.274072, 36.549523 ]
            },
            "properties" : {
              "ZIP_CO_PSA" : "37043CLVLTNMA1240PA",
              "WIRELESS_SCORE" : 3,
              "LONGITUDE" : -87.274072,
              "LATITUDE" : 36.549523
            }
        },
        {
            "type" : "Feature",
            "geometry" : {
              "type" : "Point",
              "coordinates" : [ -87.34833, 36.619655 ]
            },
            "properties" : {
              "ZIP_CO_PSA" : "37042CLVLTNMA1260PB",
              "WIRELESS_SCORE" : 3,
              "LONGITUDE" : -87.34833,
              "LATITUDE" : 36.619655
            }
        },
        {
            "type" : "Feature",
            "geometry" : {
              "type" : "Point",
              "coordinates" : [ -86.2572395, 39.7684185 ]
            },
            "properties" : {
              "ZIP_CO_PSA" : "46224IPLSIN081144LB",
              "WIRELESS_SCORE" : 3,
              "LONGITUDE" : -86.2572395,
              "LATITUDE" : 39.7684185
            }
        },
        {
            "type" : "Feature",
            "geometry" : {
              "type" : "Point",
              "coordinates" : [ -86.3837, 39.762 ]
            },
            "properties" : {
              "ZIP_CO_PSA" : "46123IPLSIN184103PC",
              "WIRELESS_SCORE" : 3,
              "LONGITUDE" : -86.3837,
              "LATITUDE" : 39.762
            }
        },
        {
            "type" : "Feature",
            "geometry" : {
              "type" : "Point",
              "coordinates" : [ -86.135219, 39.734304 ]
            },
            "properties" : {
              "ZIP_CO_PSA" : "46203IPLSIN091105LB",
              "WIRELESS_SCORE" : 3,
              "LONGITUDE" : -86.135219,
              "LATITUDE" : 39.734304
            }
        },
        {
            "type" : "Feature",
            "geometry" : {
              "type" : "Point",
              "coordinates" : [ -85.7166, 38.3132 ]
            },
            "properties" : {
              "ZIP_CO_PSA" : "47130JFVLIN011139PA",
              "WIRELESS_SCORE" : 3,
              "LONGITUDE" : -85.7166,
              "LATITUDE" : 38.3132
            }
        },
        {
            "type" : "Feature",
            "geometry" : {
              "type" : "Point",
              "coordinates" : [ -89.940136, 34.926249 ]
            },
            "properties" : {
              "ZIP_CO_PSA" : "38671HRNNMSDS1315PA",
              "WIRELESS_SCORE" : 3,
              "LONGITUDE" : -89.940136,
              "LATITUDE" : 34.926249
            }
        },
        {
            "type" : "Feature",
            "geometry" : {
              "type" : "Point",
              "coordinates" : [ -84.146566, 35.9496575 ]
            },
            "properties" : {
              "ZIP_CO_PSA" : "37932KNVLTNWH7312PA",
              "WIRELESS_SCORE" : 3,
              "LONGITUDE" : -84.146566,
              "LATITUDE" : 35.9496575
            }
        },
        {
            "type" : "Feature",
            "geometry" : {
              "type" : "Point",
              "coordinates" : [ -85.599427, 38.113414 ]
            },
            "properties" : {
              "ZIP_CO_PSA" : "40291LSVLKYFC4205PA",
              "WIRELESS_SCORE" : 3,
              "LONGITUDE" : -85.599427,
              "LATITUDE" : 38.113414
            }
        },
        {
            "type" : "Feature",
            "geometry" : {
              "type" : "Point",
              "coordinates" : [ -85.511, 38.2511 ]
            },
            "properties" : {
              "ZIP_CO_PSA" : "40223LSVLKYAN4146PA",
              "WIRELESS_SCORE" : 3,
              "LONGITUDE" : -85.511,
              "LATITUDE" : 38.2511
            }
        },
        {
            "type" : "Feature",
            "geometry" : {
              "type" : "Point",
              "coordinates" : [ -86.802708, 36.177906 ]
            },
            "properties" : {
              "ZIP_CO_PSA" : "37208NSVLTNMT1206LB",
              "WIRELESS_SCORE" : 3,
              "LONGITUDE" : -86.802708,
              "LATITUDE" : 36.177906
            }
        },
        {
            "type" : "Feature",
            "geometry" : {
              "type" : "Point",
              "coordinates" : [ -86.4666, 36.3787 ]
            },
            "properties" : {
              "ZIP_CO_PSA" : "37066GALLTNMA6110PA",
              "WIRELESS_SCORE" : 3,
              "LONGITUDE" : -86.4666,
              "LATITUDE" : 36.3787
            }
        },
        {
            "type" : "Feature",
            "geometry" : {
              "type" : "Point",
              "coordinates" : [ -86.87723, 35.91503 ]
            },
            "properties" : {
              "ZIP_CO_PSA" : "37064FKLNTNMA4151PB",
              "WIRELESS_SCORE" : 3,
              "LONGITUDE" : -86.87723,
              "LATITUDE" : 35.91503
            }
        },
        {
            "type" : "Feature",
            "geometry" : {
              "type" : "Point",
              "coordinates" : [ -86.882115, 35.816711 ]
            },
            "properties" : {
              "ZIP_CO_PSA" : "37179FKLNTNMA4163PC",
              "WIRELESS_SCORE" : 3,
              "LONGITUDE" : -86.882115,
              "LATITUDE" : 35.816711
            }
        },
        {
            "type" : "Feature",
            "geometry" : {
              "type" : "Point",
              "coordinates" : [ -85.7168585, 38.3045045 ]
            },
            "properties" : {
              "ZIP_CO_PSA" : "47130JFVLIN012140LD",
              "WIRELESS_SCORE" : 3,
              "LONGITUDE" : -85.7168585,
              "LATITUDE" : 38.3045045
            }
        },
        {
            "type" : "Feature",
            "geometry" : {
              "type" : "Point",
              "coordinates" : [ -86.587787, 39.165947 ]
            },
            "properties" : {
              "ZIP_CO_PSA" : "47404BLTNIN014136LA",
              "WIRELESS_SCORE" : 3,
              "LONGITUDE" : -86.587787,
              "LATITUDE" : 39.165947
            }
        },
        {
            "type" : "Feature",
            "geometry" : {
              "type" : "Point",
              "coordinates" : [ -86.3832, 39.838 ]
            },
            "properties" : {
              "ZIP_CO_PSA" : "46112BRBGIN011104PA",
              "WIRELESS_SCORE" : 3,
              "LONGITUDE" : -86.3832,
              "LATITUDE" : 39.838
            }
        },
        {
            "type" : "Feature",
            "geometry" : {
              "type" : "Point",
              "coordinates" : [ -90.005943, 35.111802 ]
            },
            "properties" : {
              "ZIP_CO_PSA" : "38106MMPHTNMT5314LA",
              "WIRELESS_SCORE" : 3,
              "LONGITUDE" : -90.005943,
              "LATITUDE" : 35.111802
            }
        },
        {
            "type" : "Feature",
            "geometry" : {
              "type" : "Point",
              "coordinates" : [ -84.358499, 37.81325 ]
            },
            "properties" : {
              "ZIP_CO_PSA" : "40475RCMDKYMA4413PA",
              "WIRELESS_SCORE" : 3,
              "LONGITUDE" : -84.358499,
              "LATITUDE" : 37.81325
            }
        },
        {
            "type" : "Feature",
            "geometry" : {
              "type" : "Point",
              "coordinates" : [ -86.785022, 36.176905 ]
            },
            "properties" : {
              "ZIP_CO_PSA" : "37208NSVLTNMT1147PE",
              "WIRELESS_SCORE" : 3,
              "LONGITUDE" : -86.785022,
              "LATITUDE" : 36.176905
            }
        },
        {
            "type" : "Feature",
            "geometry" : {
              "type" : "Point",
              "coordinates" : [ -88.804, 35.642 ]
            },
            "properties" : {
              "ZIP_CO_PSA" : "38301JCSNTNMA2107PA",
              "WIRELESS_SCORE" : 3,
              "LONGITUDE" : -88.804,
              "LATITUDE" : 35.642
            }
        },
        {
            "type" : "Feature",
            "geometry" : {
              "type" : "Point",
              "coordinates" : [ -86.787973, 36.027237 ]
            },
            "properties" : {
              "ZIP_CO_PSA" : "37027NSVLTNBW2158PA",
              "WIRELESS_SCORE" : 3,
              "LONGITUDE" : -86.787973,
              "LATITUDE" : 36.027237
            }
        },
        {
            "type" : "Feature",
            "geometry" : {
              "type" : "Point",
              "coordinates" : [ -86.828935, 36.08304 ]
            },
            "properties" : {
              "ZIP_CO_PSA" : "37215NSVLTNBH1102LA",
              "WIRELESS_SCORE" : 3,
              "LONGITUDE" : -86.828935,
              "LATITUDE" : 36.08304
            }
        },
        {
            "type" : "Feature",
            "geometry" : {
              "type" : "Point",
              "coordinates" : [ -85.3115865, 35.084619 ]
            },
            "properties" : {
              "ZIP_CO_PSA" : "37415CHTGTNRB5115PA",
              "WIRELESS_SCORE" : 3,
              "LONGITUDE" : -85.3115865,
              "LATITUDE" : 35.084619
            }
        },
        {
            "type" : "Feature",
            "geometry" : {
              "type" : "Point",
              "coordinates" : [ -84.2313415, 35.9129055 ]
            },
            "properties" : {
              "ZIP_CO_PSA" : "37932KNVLTNWH7328PD",
              "WIRELESS_SCORE" : 3,
              "LONGITUDE" : -84.2313415,
              "LATITUDE" : 35.9129055
            }
        },
        {
            "type" : "Feature",
            "geometry" : {
              "type" : "Point",
              "coordinates" : [ -86.552, 36.1827 ]
            },