{
    "type" : "FeatureCollection",
    "name" : "Sheet1",
    "features" : [
        {
            "type" : "Feature",
            "geometry" : {
              "type" : "Point",
              "coordinates" : [ -92.3365315, 34.7573555 ]
            },
            "properties" : {
              "ZIP_CO_PSA" : "72205LTRKARMO1158PA",
              "WIRELESS_SCORE" : 3,
              "LONGITUDE" : -92.3365315,
              "LATITUDE" : 34.7573555
            }
        },
        {
            "type" : "Feature",
            "geometry" : {
              "type" : "Point",
              "coordinates" : [ -90.300006, 38.552741 ]
            },
            "properties" : {
              "ZIP_CO_PSA" : "63123STLSMO114103PA",
              "WIRELESS_SCORE" : 3,
              "LONGITUDE" : -90.300006,
              "LATITUDE" : 38.552741
            }
        },
        {
            "type" : "Feature",
            "geometry" : {
              "type" : "Point",
              "coordinates" : [ -90.6358, 38.5888 ]
            },
            "properties" : {
              "ZIP_CO_PSA" : "63011PONDMO622183PA",
              "WIRELESS_SCORE" : 3,
              "LONGITUDE" : -90.6358,
              "LATITUDE" : 38.5888
            }
        },
        {
            "type" : "Feature",
            "geometry" : {
              "type" : "Point",
              "coordinates" : [ -94.577568, 39.0537645 ]
            },
            "properties" : {
              "ZIP_CO_PSA" : "64110KSCYMO052115LA",
              "WIRELESS_SCORE" : 3,
              "LONGITUDE" : -94.577568,
              "LATITUDE" : 39.0537645
            }
        },
        {
            "type" : "Feature",
            "geometry" : {
              "type" : "Point",
              "coordinates" : [ -94.8349235, 39.1513745 ]
            },
            "properties" : {
              "ZIP_CO_PSA" : "66109KSCYKSBN2317PA",
              "WIRELESS_SCORE" : 3,
              "LONGITUDE" : -94.8349235,
              "LATITUDE" : 39.1513745
            }
        },
        {
            "type" : "Feature",
            "geometry" : {
              "type" : "Point",
              "coordinates" : [ -94.581219, 39.096807 ]
            },
            "properties" : {
              "ZIP_CO_PSA" : "64106KSCYMO551411PA",
              "WIRELESS_SCORE" : 3,
              "LONGITUDE" : -94.581219,
              "LATITUDE" : 39.096807
            }
        },
        {
            "type" : "Feature",
            "geometry" : {
              "type" : "Point",
              "coordinates" : [ -94.579478, 39.1077 ]
            },
            "properties" : {
              "ZIP_CO_PSA" : "64106KSCYMO555503PA",
              "WIRELESS_SCORE" : 3,
              "LONGITUDE" : -94.579478,
              "LATITUDE" : 39.1077
            }
        },
        {
            "type" : "Feature",
            "geometry" : {
              "type" : "Point",
              "coordinates" : [ -94.477146, 38.80591 ]
            },
            "properties" : {
              "ZIP_CO_PSA" : "64083KSCYMO402255PA",
              "WIRELESS_SCORE" : 3,
              "LONGITUDE" : -94.477146,
              "LATITUDE" : 38.80591
            }
        },
        {
            "type" : "Feature",
            "geometry" : {
              "type" : "Point",
              "coordinates" : [ -97.454688, 35.656121 ]
            },
            "properties" : {
              "ZIP_CO_PSA" : "73034EDMDOKMA2115PA",
              "WIRELESS_SCORE" : 3,
              "LONGITUDE" : -97.454688,
              "LATITUDE" : 35.656121
            }
        },
        {
            "type" : "Feature",
            "geometry" : {
              "type" : "Point",
              "coordinates" : [ -97.607124, 35.340622 ]
            },
            "properties" : {
              "ZIP_CO_PSA" : "73173OKCYOKPN4043PB",
              "WIRELESS_SCORE" : 3,
              "LONGITUDE" : -97.607124,
              "LATITUDE" : 35.340622
            }
        },
        {
            "type" : "Feature",
            "geometry" : {
              "type" : "Point",
              "coordinates" : [ -97.527656, 35.48987 ]
            },
            "properties" : {
              "ZIP_CO_PSA" : "73106OKCYOKUN3004PA",
              "WIRELESS_SCORE" : 3,
              "LONGITUDE" : -97.527656,
              "LATITUDE" : 35.48987
            }
        },
        {
            "type" : "Feature",
            "geometry" : {
              "type" : "Point",
              "coordinates" : [ -97.3396695, 35.4587505 ]
            },
            "properties" : {
              "ZIP_CO_PSA" : "73130OKCYOKNI3208PA",
              "WIRELESS_SCORE" : 3,
              "LONGITUDE" : -97.3396695,
              "LATITUDE" : 35.4587505
            }
        },
        {
            "type" : "Feature",
            "geometry" : {
              "type" : "Point",
              "coordinates" : [ -92.3140665, 34.7504905 ]
            },
            "properties" : {
              "ZIP_CO_PSA" : "72205LTRKARMO2144PA",
              "WIRELESS_SCORE" : 3,
              "LONGITUDE" : -92.3140665,
              "LATITUDE" : 34.7504905
            }
        },
        {
            "type" : "Feature",
            "geometry" : {
              "type" : "Point",
              "coordinates" : [ -90.4820275, 38.553622 ]
            },
            "properties" : {
              "ZIP_CO_PSA" : "63088VYPKMO642104PA",
              "WIRELESS_SCORE" : 3,
              "LONGITUDE" : -90.4820275,
              "LATITUDE" : 38.553622
            }
        },
        {
            "type" : "Feature",
            "geometry" : {
              "type" : "Point",
              "coordinates" : [ -92.436618, 34.621955 ]
            },
            "properties" : {
              "ZIP_CO_PSA" : "72002LTRKARSW2163PA",
              "WIRELESS_SCORE" : 4,
              "LONGITUDE" : -92.436618,
              "LATITUDE" : 34.621955
            }
        },
        {
            "type" : "Feature",
            "geometry" : {
              "type" : "Point",
              "coordinates" : [ -94.868872, 38.900337 ]
            },
            "properties" : {
              "ZIP_CO_PSA" : "66061KSCYKSOL4179PA",
              "WIRELESS_SCORE" : 4,
              "LONGITUDE" : -94.868872,
              "LATITUDE" : 38.900337
            }
        },
        {
            "type" : "Feature",
            "geometry" : {
              "type" : "Point",
              "coordinates" : [ -90.266541, 38.569839 ]
            },
            "properties" : {
              "ZIP_CO_PSA" : "63116STLSMO033503LA",
              "WIRELESS_SCORE" : 3,
              "LONGITUDE" : -90.266541,
              "LATITUDE" : 38.569839
            }
        },
        {
            "type" : "Feature",
            "geometry" : {
              "type" : "Point",
              "coordinates" : [ -90.471339, 38.58984 ]
            },
            "properties" : {
              "ZIP_CO_PSA" : "63021STLSMO414275PC",
              "WIRELESS_SCORE" : 3,
              "LONGITUDE" : -90.471339,
              "LATITUDE" : 38.58984
            }
        },
        {
            "type" : "Feature",
            "geometry" : {
              "type" : "Point",
              "coordinates" : [ -90.317153, 38.588032 ]
            },
            "properties" : {
              "ZIP_CO_PSA" : "63119STLSMO061117LB",
              "WIRELESS_SCORE" : 3,
              "LONGITUDE" : -90.317153,
              "LATITUDE" : 38.588032
            }
        },
        {
            "type" : "Feature",
            "geometry" : {
              "type" : "Point",
              "coordinates" : [ -90.403167, 38.431986 ]
            },
            "properties" : {
              "ZIP_CO_PSA" : "63010MXVLMO603110PB",
              "WIRELESS_SCORE" : 3,
              "LONGITUDE" : -90.403167,
              "LATITUDE" : 38.431986
            }
        },
        {
            "type" : "Feature",
            "geometry" : {
              "type" : "Point",
              "coordinates" : [ -93.2766, 37.059579 ]
            },
            "properties" : {
              "ZIP_CO_PSA" : "65714NIXAMOAA1238PB",
              "WIRELESS_SCORE" : 3,
              "LONGITUDE" : -93.2766,
              "LATITUDE" : 37.059579
            }
        },
        {
            "type" : "Feature",
            "geometry" : {
              "type" : "Point",
              "coordinates" : [ -97.339525, 37.745267 ]
            },
            "properties" : {
              "ZIP_CO_PSA" : "67204WCHTKSTE3175PB",
              "WIRELESS_SCORE" : 3,
              "LONGITUDE" : -97.339525,
              "LATITUDE" : 37.745267
            }
        },
        {
            "type" : "Feature",
            "geometry" : {
              "type" : "Point",
              "coordinates" : [ -97.6254315, 35.496271 ]
            },
            "properties" : {
              "ZIP_CO_PSA" : "73127OKCYOKSU2110PA",
              "WIRELESS_SCORE" : 3,
              "LONGITUDE" : -97.6254315,
              "LATITUDE" : 35.496271
            }
        },
        {
            "type" : "Feature",
            "geometry" : {
              "type" : "Point",
              "coordinates" : [ -95.244004, 38.937898 ]
            },
            "properties" : {
              "ZIP_CO_PSA" : "66046LWRNKSVE2231PA",
              "WIRELESS_SCORE" : 3,
              "LONGITUDE" : -95.244004,
              "LATITUDE" : 38.937898
            }
        },
        {
            "type" : "Feature",
            "geometry" : {
              "type" : "Point",
              "coordinates" : [ -97.187905, 37.68636 ]
            },
            "properties" : {
              "ZIP_CO_PSA" : "67206WCHTKSOL2231PA",
              "WIRELESS_SCORE" : 3,
              "LONGITUDE" : -97.187905,
              "LATITUDE" : 37.68636
            }
        },
        {
            "type" : "Feature",
            "geometry" : {
              "type" : "Point",
              "coordinates" : [ -97.4550315, 37.7563145 ]
            },
            "properties" : {
              "ZIP_CO_PSA" : "67101WCHTKSCE1263PA",
              "WIRELESS_SCORE" : 3,
              "LONGITUDE" : -97.4550315,
              "LATITUDE" : 37.7563145
            }
        },
        {
            "type" : "Feature",
            "geometry" : {
              "type" : "Point",
              "coordinates" : [ -97.295599, 37.653551 ]
            },
            "properties" : {
              "ZIP_CO_PSA" : "67218WCHTKSOL3203PA",
              "WIRELESS_SCORE" : 3,
              "LONGITUDE" : -97.295599,
              "LATITUDE" : 37.653551
            }
        },
        {
            "type" : "Feature",
            "geometry" : {
              "type" : "Point",
              "coordinates" : [ -94.679506, 38.829138 ]
            },
            "properties" : {
              "ZIP_CO_PSA" : "66085KSCYKSST3387PC",
              "WIRELESS_SCORE" : 3,
              "LONGITUDE" : -94.679506,
              "LATITUDE" : 38.829138
            }
        },
        {
            "type" : "Feature",
            "geometry" : {
              "type" : "Point",
              "coordinates" : [ -95.205231, 38.938407 ]
            },
            "properties" : {
              "ZIP_CO_PSA" : "66046LWRNKSVE2365PA",
              "WIRELESS_SCORE" : 4,
              "LONGITUDE" : -95.205231,
              "LATITUDE" : 38.938407
            }
        },
        {
            "type" : "Feature",
            "geometry" : {
              "type" : "Point",
              "coordinates" : [ -94.3436, 38.8347 ]
            },
            "properties" : {
              "ZIP_CO_PSA" : "64034KSCYMO413535PA",
              "WIRELESS_SCORE" : 4,
              "LONGITUDE" : -94.3436,
              "LATITUDE" : 38.8347
            }
        },
        {
            "type" : "Feature",
            "geometry" : {
              "type" : "Point",
              "coordinates" : [ -97.519863, 35.626256 ]
            },
            "properties" : {
              "ZIP_CO_PSA" : "73013EDMDOKMA4309PB",
              "WIRELESS_SCORE" : 4,
              "LONGITUDE" : -97.519863,
              "LATITUDE" : 35.626256
            }
        },
        {
            "type" : "Feature",
            "geometry" : {
              "type" : "Point",
              "coordinates" : [ -95.906817, 36.359232 ]
            },
            "properties" : {
              "ZIP_CO_PSA" : "74021COVLOKMA4026PA",
              "WIRELESS_SCORE" : 4,
              "LONGITUDE" : -95.906817,
              "LATITUDE" : 36.359232
            }
        },
        {
            "type" : "Feature",
            "geometry" : {
              "type" : "Point",
              "coordinates" : [ -95.787676, 39.034068 ]
            },
            "properties" : {
              "ZIP_CO_PSA" : "66615TPKAKSFA4225PA",
              "WIRELESS_SCORE" : 4,
              "LONGITUDE" : -95.787676,
              "LATITUDE" : 39.034068
            }
        },
        {
            "type" : "Feature",
            "geometry" : {
              "type" : "Point",
              "coordinates" : [ -94.276278, 39.01523 ]
            },
            "properties" : {
              "ZIP_CO_PSA" : "64015BLSPMOCA2101LA",
              "WIRELESS_SCORE" : 3,
              "LONGITUDE" : -94.276278,
              "LATITUDE" : 39.01523
            }
        },
        {
            "type" : "Feature",
            "geometry" : {
              "type" : "Point",
              "coordinates" : [ -94.829006, 38.932365 ]
            },
            "properties" : {
              "ZIP_CO_PSA" : "66061KSCYKSOL1287PA",
              "WIRELESS_SCORE" : 3,
              "LONGITUDE" : -94.829006,
              "LATITUDE" : 38.932365
            }
        },
        {
            "type" : "Feature",
            "geometry" : {
              "type" : "Point",
              "coordinates" : [ -94.4308205, 39.0846605 ]
            },
            "properties" : {
              "ZIP_CO_PSA" : "64052KSCYMO223153PA",
              "WIRELESS_SCORE" : 3,
              "LONGITUDE" : -94.4308205,
              "LATITUDE" : 39.0846605
            }
        },
        {
            "type" : "Feature",
            "geometry" : {
              "type" : "Point",
              "coordinates" : [ -97.5856775, 35.425838 ]
            },
            "properties" : {
              "ZIP_CO_PSA" : "73119OKCYOKMU4107PC",
              "WIRELESS_SCORE" : 3,
              "LONGITUDE" : -97.5856775,
              "LATITUDE" : 35.425838
            }
        },
        {
            "type" : "Feature",
            "geometry" : {
              "type" : "Point",
              "coordinates" : [ -95.238613, 38.952747 ]
            },
            "properties" : {
              "ZIP_CO_PSA" : "66044LWRNKSVE2153PB",
              "WIRELESS_SCORE" : 3,
              "LONGITUDE" : -95.238613,
              "LATITUDE" : 38.952747
            }
        },
        {
            "type" : "Feature",
            "geometry" : {
              "type" : "Point",
              "coordinates" : [ -96.122922, 36.100912 ]
            },
            "properties" : {
              "ZIP_CO_PSA" : "74063TULSOKSA3140PA",
              "WIRELESS_SCORE" : 3,
              "LONGITUDE" : -96.122922,
              "LATITUDE" : 36.100912
            }
        },
        {
            "type" : "Feature",
            "geometry" : {
              "type" : "Point",
              "coordinates" : [ -95.967589, 36.07727 ]
            },
            "properties" : {
              "ZIP_CO_PSA" : "74105TULSOKRI3042LC",
              "WIRELESS_SCORE" : 3,
              "LONGITUDE" : -95.967589,
              "LATITUDE" : 36.07727
            }
        },
        {
            "type" : "Feature",
            "geometry" : {
              "type" : "Point",
              "coordinates" : [ -92.4, 35.0852 ]
            },
            "properties" : {
              "ZIP_CO_PSA" : "72032CNWYARMA1404PA",
              "WIRELESS_SCORE" : 3,
              "LONGITUDE" : -92.4,
              "LATITUDE" : 35.0852
            }
        },
        {
            "type" : "Feature",
            "geometry" : {
              "type" : "Point",
              "coordinates" : [ -90.50468, 38.777471 ]
            },
            "properties" : {
              "ZIP_CO_PSA" : "63301STCHMO632301PA",
              "WIRELESS_SCORE" : 3,
              "LONGITUDE" : -90.50468,
              "LATITUDE" : 38.777471
            }
        },
        {
            "type" : "Feature",
            "geometry" : {
              "type" : "Point",
              "coordinates" : [ -97.667665, 35.581771 ]
            },
            "properties" : {
              "ZIP_CO_PSA" : "73162OKCYOKPA1210PC",
              "WIRELESS_SCORE" : 3,
              "LONGITUDE" : -97.667665,
              "LATITUDE" : 35.581771
            }
        },
        {
            "type" : "Feature",
            "geometry" : {
              "type" : "Point",
              "coordinates" : [ -94.268798, 36.363987 ]
            },
            "properties" : {
              "ZIP_CO_PSA" : "72712BNTVARCR4207PA",
              "WIRELESS_SCORE" : 4,
              "LONGITUDE" : -94.268798,
              "LATITUDE" : 36.363987
            }
        },
        {
            "type" : "Feature",
            "geometry" : {
              "type" : "Point",
              "coordinates" : [ -94.70765, 38.885348 ]
            },
            "properties" : {
              "ZIP_CO_PSA" : "66213KSCYKSST1117PA",
              "WIRELESS_SCORE" : 4,
              "LONGITUDE" : -94.70765,
              "LATITUDE" : 38.885348
            }
        },
        {
            "type" : "Feature",
            "geometry" : {
              "type" : "Point",
              "coordinates" : [ -90.268934, 38.655285 ]
            },
            "properties" : {
              "ZIP_CO_PSA" : "63108STLSMO044105LA",
              "WIRELESS_SCORE" : 3,
              "LONGITUDE" : -90.268934,
              "LATITUDE" : 38.655285
            }
        },
        {
            "type" : "Feature",
            "geometry" : {
              "type" : "Point",
              "coordinates" : [ -94.591015, 39.065801 ]
            },
            "properties" : {
              "ZIP_CO_PSA" : "64111KSCYMO051402PA",
              "WIRELESS_SCORE" : 3,
              "LONGITUDE" : -94.591015,
              "LATITUDE" : 39.065801
            }
        },
        {
            "type" : "Feature",
            "geometry" : {
              "type" : "Point",
              "coordinates" : [ -92.341756, 34.767345 ]
            },
            "properties" : {
              "ZIP_CO_PSA" : "72207LTRKARMO1238PA",
              "WIRELESS_SCORE" : 3,
              "LONGITUDE" : -92.341756,
              "LATITUDE" : 34.767345
            }
        },
        {
            "type" : "Feature",
            "geometry" : {
              "type" : "Point",
              "coordinates" : [ -97.532247, 35.503843 ]
            },
            "properties" : {
              "ZIP_CO_PSA" : "73118OKCYOKUN1014LB",
              "WIRELESS_SCORE" : 3,
              "LONGITUDE" : -97.532247,
              "LATITUDE" : 35.503843
            }
        },
        {
            "type" : "Feature",
            "geometry" : {
              "type" : "Point",
              "coordinates" : [ -95.2184705, 38.951395 ]
            },
            "properties" : {
              "ZIP_CO_PSA" : "66044LWRNKSVE2177PA",
              "WIRELESS_SCORE" : 3,
              "LONGITUDE" : -95.2184705,
              "LATITUDE" : 38.951395
            }
        },
        {
            "type" : "Feature",
            "geometry" : {
              "type" : "Point",
              "coordinates" : [ -97.562491, 35.620345 ]
            },
            "properties" : {
              "ZIP_CO_PSA" : "73134OKCYOKSK1404PA",
              "WIRELESS_SCORE" : 3,
              "LONGITUDE" : -97.562491,
              "LATITUDE" : 35.620345
            }
        },
        {
            "type" : "Feature",
            "geometry" : {
              "type" : "Point",
              "coordinates" : [ -92.360746, 34.757156 ]
            },
            "properties" : {
              "ZIP_CO_PSA" : "72205LTRKARCA2141PA",
              "WIRELESS_SCORE" : 4,
              "LONGITUDE" : -92.360746,
              "LATITUDE" : 34.757156
            }
        },
        {
            "type" : "Feature",
            "geometry" : {
              "type" : "Point",
              "coordinates" : [ -89.946155, 38.61095 ]
            },
            "properties" : {
              "ZIP_CO_PSA" : "62269OFLNILMQ4208PB",
              "WIRELESS_SCORE" : 3,
              "LONGITUDE" : -89.946155,
              "LATITUDE" : 38.61095
            }
        },
        {
            "type" : "Feature",
            "geometry" : {
              "type" : "Point",
              "coordinates" : [ -97.213384, 37.673952 ]
            },
            "properties" : {
              "ZIP_CO_PSA" : "67207WCHTKSOL2295PA",
              "WIRELESS_SCORE" : 3,
              "LONGITUDE" : -97.213384,
              "LATITUDE" : 37.673952
            }
        },
        {
            "type" : "Feature",
            "geometry" : {
              "type" : "Point",
              "coordinates" : [ -97.5542395, 35.490671 ]
            },
            "properties" : {
              "ZIP_CO_PSA" : "73107OKCYOKUN4024LB",
              "WIRELESS_SCORE" : 3,
              "LONGITUDE" : -97.5542395,
              "LATITUDE" : 35.490671
            }
        },
        {
            "type" : "Feature",
            "geometry" : {
              "type" : "Point",
              "coordinates" : [ -90.7296055, 38.7323755 ]
            },
            "properties" : {
              "ZIP_CO_PSA" : "63368WDSPMO018220PA",
              "WIRELESS_SCORE" : 3,
              "LONGITUDE" : -90.7296055,
              "LATITUDE" : 38.7323755
            }
        },
        {
            "type" : "Feature",
            "geometry" : {
              "type" : "Point",
              "coordinates" : [ -97.539272, 35.49914 ]
            },
            "properties" : {
              "ZIP_CO_PSA" : "73106OKCYOKUN4101PB",
              "WIRELESS_SCORE" : 3,
              "LONGITUDE" : -97.539272,
              "LATITUDE" : 35.49914
            }
        },
        {
            "type" : "Feature",
            "geometry" : {
              "type" : "Point",
              "coordinates" : [ -90.394644, 38.431323 ]
            },
            "properties" : {
              "ZIP_CO_PSA" : "63010MXVLMO603108PA",
              "WIRELESS_SCORE" : 3,
              "LONGITUDE" : -90.394644,
              "LATITUDE" : 38.431323
            }
        },
        {
            "type" : "Feature",
            "geometry" : {
              "type" : "Point",
              "coordinates" : [ -90.3992955, 38.7042745 ]
            },
            "properties" : {
              "ZIP_CO_PSA" : "63114STLSMO233218PA",
              "WIRELESS_SCORE" : 3,
              "LONGITUDE" : -90.3992955,
              "LATITUDE" : 38.7042745
            }
        },
        {
            "type" : "Feature",
            "geometry" : {
              "type" : "Point",
              "coordinates" : [ -90.291569, 38.51687 ]
            },
            "properties" : {
              "ZIP_CO_PSA" : "63125STLSMO221126LA",
              "WIRELESS_SCORE" : 3,
              "LONGITUDE" : -90.291569,
              "LATITUDE" : 38.51687
            }
        },
        {
            "type" : "Feature",
            "geometry" : {
              "type" : "Point",
              "coordinates" : [ -90.36395, 38.59778 ]
            },
            "properties" : {
              "ZIP_CO_PSA" : "63119STLSMO261105LA",
              "WIRELESS_SCORE" : 3,
              "LONGITUDE" : -90.36395,
              "LATITUDE" : 38.59778
            }
        },
        {
            "type" : "Feature",
            "geometry" : {
              "type" : "Point",
              "coordinates" : [ -94.937829, 39.1112985 ]
            },
            "properties" : {
              "ZIP_CO_PSA" : "66007KSCYKSBN4303PA",
              "WIRELESS_SCORE" : 3,
              "LONGITUDE" : -94.937829,
              "LATITUDE" : 39.1112985
            }
        },
        {
            "type" : "Feature",
            "geometry" : {
              "type" : "Point",
              "coordinates" : [ -94.580998, 39.004101 ]
            },
            "properties" : {
              "ZIP_CO_PSA" : "64131KSCYMO024224LA",
              "WIRELESS_SCORE" : 3,
              "LONGITUDE" : -94.580998,
              "LATITUDE" : 39.004101
            }
        },
        {
            "type" : "Feature",
            "geometry" : {
              "type" : "Point",
              "coordinates" : [ -97.544968, 35.670752 ]
            },
            "properties" : {
              "ZIP_CO_PSA" : "73012EDMDOKMA4703PA",
              "WIRELESS_SCORE" : 3,
              "LONGITUDE" : -97.544968,
              "LATITUDE" : 35.670752
            }
        },
        {
            "type" : "Feature",
            "geometry" : {
              "type" : "Point",
              "coordinates" : [ -97.6341205, 35.5317935 ]
            },
            "properties" : {
              "ZIP_CO_PSA" : "73008OKCYOKPA3301LA",
              "WIRELESS_SCORE" : 3,
              "LONGITUDE" : -97.6341205,
              "LATITUDE" : 35.5317935
            }
        },
        {
            "type" : "Feature",
            "geometry" : {
              "type" : "Point",
              "coordinates" : [ -90.39959, 38.586305 ]
            },
            "properties" : {
              "ZIP_CO_PSA" : "63122STLSMO412104LB",
              "WIRELESS_SCORE" : 3,
              "LONGITUDE" : -90.39959,
              "LATITUDE" : 38.586305
            }
        },
        {
            "type" : "Feature",
            "geometry" : {
              "type" : "Point",
              "coordinates" : [ -95.9723115, 36.1683695 ]
            },
            "properties" : {
              "ZIP_CO_PSA" : "74106TULSOKTB1212PA",
              "WIRELESS_SCORE" : 4,
              "LONGITUDE" : -95.9723115,
              "LATITUDE" : 36.1683695
            }
        },
        {
            "type" : "Feature",
            "geometry" : {
              "type" : "Point",
              "coordinates" : [ -97.569936, 35.66137 ]
            },
            "properties" : {
              "ZIP_CO_PSA" : "73012EDMDOKMA4803PB",
              "WIRELESS_SCORE" : 4,
              "LONGITUDE" : -97.569936,
              "LATITUDE" : 35.66137
            }
        },
        {
            "type" : "Feature",
            "geometry" : {
              "type" : "Point",
              "coordinates" : [ -90.280043, 38.565041 ]
            },
            "properties" : {
              "ZIP_CO_PSA" : "63116STLSMO034111PA",
              "WIRELESS_SCORE" : 3,
              "LONGITUDE" : -90.280043,
              "LATITUDE" : 38.565041
            }
        },
        {
            "type" : "Feature",
            "geometry" : {
              "type" : "Point",
              "coordinates" : [ -90.308487, 38.624111 ]
            },
            "properties" : {
              "ZIP_CO_PSA" : "63117STLSMO062203LA",
              "WIRELESS_SCORE" : 3,
              "LONGITUDE" : -90.308487,
              "LATITUDE" : 38.624111
            }
        },
        {
            "type" : "Feature",
            "geometry" : {
              "type" : "Point",
              "coordinates" : [ -90.431829, 38.675094 ]
            },
            "properties" : {
              "ZIP_CO_PSA" : "63146STLSMO211327LA",
              "WIRELESS_SCORE" : 3,
              "LONGITUDE" : -90.431829,
              "LATITUDE" : 38.675094
            }
        },
        {
            "type" : "Feature",
            "geometry" : {
              "type" : "Point",
              "coordinates" : [ -90.328195, 38.6568745 ]
            },
            "properties" : {
              "ZIP_CO_PSA" : "63130STLSMO074501LB",
              "WIRELESS_SCORE" : 3,
              "LONGITUDE" : -90.328195,
              "LATITUDE" : 38.6568745
            }
        },
        {
            "type" : "Feature",
            "geometry" : {
              "type" : "Point",
              "coordinates" : [ -90.338308, 38.5719975 ]
            },
            "properties" : {
              "ZIP_CO_PSA" : "63119STLSMO263119PA",
              "WIRELESS_SCORE" : 3,
              "LONGITUDE" : -90.338308,
              "LATITUDE" : 38.5719975
            }
        },
        {
            "type" : "Feature",
            "geometry" : {
              "type" : "Point",
              "coordinates" : [ -94.6237885, 38.953423 ]
            },
            "properties" : {
              "ZIP_CO_PSA" : "66206KSCYKSNA2225LB",
              "WIRELESS_SCORE" : 3,
              "LONGITUDE" : -94.6237885,
              "LATITUDE" : 38.953423
            }
        },
        {
            "type" : "Feature",
            "geometry" : {
              "type" : "Point",
              "coordinates" : [ -97.311098, 37.645824 ]
            },
            "properties" : {
              "ZIP_CO_PSA" : "67216WCHTKSAM2237PA",
              "WIRELESS_SCORE" : 3,
              "LONGITUDE" : -97.311098,
              "LATITUDE" : 37.645824
            }
        },
        {
            "type" : "Feature",
            "geometry" : {
              "type" : "Point",
              "coordinates" : [ -97.465504, 35.376197 ]
            },
            "properties" : {
              "ZIP_CO_PSA" : "73160OKCYOKOR3402PA",
              "WIRELESS_SCORE" : 3,
              "LONGITUDE" : -97.465504,
              "LATITUDE" : 35.376197
            }
        },
        {
            "type" : "Feature",
            "geometry" : {
              "type" : "Point",
              "coordinates" : [ -97.558675, 35.497428 ]
            },
            "properties" : {
              "ZIP_CO_PSA" : "73107OKCYOKWI2503LA",
              "WIRELESS_SCORE" : 3,
              "LONGITUDE" : -97.558675,
              "LATITUDE" : 35.497428
            }
        },
        {
            "type" : "Feature",
            "geometry" : {
              "type" : "Point",
              "coordinates" : [ -97.561589, 35.66 ]
            },
            "properties" : {
              "ZIP_CO_PSA" : "73012EDMDOKMA4801PB",
              "WIRELESS_SCORE" : 3,
              "LONGITUDE" : -97.561589,
              "LATITUDE" : 35.66
            }
        },
        {
            "type" : "Feature",
            "geometry" : {
              "type" : "Point",
              "coordinates" : [ -92.318713, 34.754015 ]
            },
            "properties" : {
              "ZIP_CO_PSA" : "72205LTRKARMO2102PA",
              "WIRELESS_SCORE" : 3,
              "LONGITUDE" : -92.318713,
              "LATITUDE" : 34.754015
            }
        },
        {
            "type" : "Feature",
            "geometry" : {
              "type" : "Point",
              "coordinates" : [ -92.1935775, 34.7507745 ]
            },
            "properties" : {
              "ZIP_CO_PSA" : "72117LTRKARWI2115PA",
              "WIRELESS_SCORE" : 3,
              "LONGITUDE" : -92.1935775,
              "LATITUDE" : 34.7507745
            }
        },
        {
            "type" : "Feature",
            "geometry" : {
              "type" : "Point",
              "coordinates" : [ -97.446235, 35.216871 ]
            },
            "properties" : {
              "ZIP_CO_PSA" : "73069NRMNOKMA3001LB",
              "WIRELESS_SCORE" : 3,
              "LONGITUDE" : -97.446235,
              "LATITUDE" : 35.216871
            }
        },
        {
            "type" : "Feature",
            "geometry" : {
              "type" : "Point",
              "coordinates" : [ -90.490091, 38.831381 ]
            },
            "properties" : {
              "ZIP_CO_PSA" : "63301STCHMO631127PA",
              "WIRELESS_SCORE" : 4,
              "LONGITUDE" : -90.490091,
              "LATITUDE" : 38.831381
            }
        },
        {
            "type" : "Feature",
            "geometry" : {
              "type" : "Point",
              "coordinates" : [ -97.484012, 37.652864 ]
            },
            "properties" : {
              "ZIP_CO_PSA" : "67235WCHTKSCE3229PA",
              "WIRELESS_SCORE" : 4,
              "LONGITUDE" : -97.484012,
              "LATITUDE" : 37.652864
            }
        },
        {
            "type" : "Feature",
            "geometry" : {
              "type" : "Point",
              "coordinates" : [ -97.506568, 35.585897 ]
            },
            "properties" : {
              "ZIP_CO_PSA" : "73114OKCYOKSK2402PC",
              "WIRELESS_SCORE" : 4,
              "LONGITUDE" : -97.506568,
              "LATITUDE" : 35.585897
            }
        },
        {
            "type" : "Feature",
            "geometry" : {
              "type" : "Point",
              "coordinates" : [ -90.630704, 38.763735 ]
            },
            "properties" : {
              "ZIP_CO_PSA" : "63376HVTRMO674404PA",
              "WIRELESS_SCORE" : 3,
              "LONGITUDE" : -90.630704,
              "LATITUDE" : 38.763735
            }
        },
        {
            "type" : "Feature",
            "geometry" : {
              "type" : "Point",
              "coordinates" : [ -90.258881, 38.64946 ]
            },
            "properties" : {
              "ZIP_CO_PSA" : "63108STLSMO042117PA",
              "WIRELESS_SCORE" : 3,
              "LONGITUDE" : -90.258881,
              "LATITUDE" : 38.64946
            }
        },
        {
            "type" : "Feature",
            "geometry" : {
              "type" : "Point",
              "coordinates" : [ -90.20728, 38.61442 ]
            },
            "properties" : {
              "ZIP_CO_PSA" : "63104STLSMO012219PA",
              "WIRELESS_SCORE" : 3,
              "LONGITUDE" : -90.20728,
              "LATITUDE" : 38.61442
            }
        },
        {
            "type" : "Feature",
            "geometry" : {
              "type" : "Point",
              "coordinates" : [ -94.219836, 36.104661 ]
            },
            "properties" : {
              "ZIP_CO_PSA" : "72704FYVLARHI5438PA",
              "WIRELESS_SCORE" : 3,
              "LONGITUDE" : -94.219836,
              "LATITUDE" : 36.104661
            }
        },
        {
            "type" : "Feature",
            "geometry" : {
              "type" : "Point",
              "coordinates" : [ -93.369202, 37.195695 ]
            },
            "properties" : {
              "ZIP_CO_PSA" : "65802SPFDMOMC4529PA",
              "WIRELESS_SCORE" : 3,
              "LONGITUDE" : -93.369202,
              "LATITUDE" : 37.195695
            }
        },
        {
            "type" : "Feature",
            "geometry" : {
              "type" : "Point",
              "coordinates" : [ -94.414787, 39.0875985 ]
            },
            "properties" : {
              "ZIP_CO_PSA" : "64050KSCYMO223137PA",
              "WIRELESS_SCORE" : 3,
              "LONGITUDE" : -94.414787,
              "LATITUDE" : 39.0875985
            }
        },
        {
            "type" : "Feature",
            "geometry" : {
              "type" : "Point",
              "coordinates" : [ -97.65655, 35.545339 ]
            },
            "properties" : {
              "ZIP_CO_PSA" : "73132OKCYOKPA4204PA",
              "WIRELESS_SCORE" : 3,
              "LONGITUDE" : -97.65655,
              "LATITUDE" : 35.545339
            }
        },
        {
            "type" : "Feature",
            "geometry" : {
              "type" : "Point",
              "coordinates" : [ -95.242666, 38.951807 ]
            },
            "properties" : {
              "ZIP_CO_PSA" : "66044LWRNKSVE2183PA",
              "WIRELESS_SCORE" : 3,
              "LONGITUDE" : -95.242666,
              "LATITUDE" : 38.951807
            }
        },
        {
            "type" : "Feature",
            "geometry" : {
              "type" : "Point",
              "coordinates" : [ -95.835502, 36.255827 ]
            },
            "properties" : {
              "ZIP_CO_PSA" : "74055TULSOKOW2403PB",
              "WIRELESS_SCORE" : 3,
              "LONGITUDE" : -95.835502,
              "LATITUDE" : 36.255827
            }
        },
        {
            "type" : "Feature",
            "geometry" : {
              "type" : "Point",
              "coordinates" : [ -95.580028, 36.291663 ]
            },
            "properties" : {
              "ZIP_CO_PSA" : "74019CLRMOKMA3408PA",
              "WIRELESS_SCORE" : 3,
              "LONGITUDE" : -95.580028,
              "LATITUDE" : 36.291663
            }
        },
        {
            "type" : "Feature",
            "geometry" : {
              "type" : "Point",
              "coordinates" : [ -95.979542, 36.108569 ]
            },
            "properties" : {
              "ZIP_CO_PSA" : "74105TULSOKRI4024LA",
              "WIRELESS_SCORE" : 3,
              "LONGITUDE" : -95.979542,
              "LATITUDE" : 36.108569
            }
        },
        {
            "type" : "Feature",
            "geometry" : {
              "type" : "Point",
              "coordinates" : [ -97.38044, 35.48227 ]
            },
            "properties" : {
              "ZIP_CO_PSA" : "73110OKCYOKPE1379PA",
              "WIRELESS_SCORE" : 3,
              "LONGITUDE" : -97.38044,
              "LATITUDE" : 35.48227
            }
        },
        {
            "type" : "Feature",
            "geometry" : {
              "type" : "Point",
              "coordinates" : [ -94.8767305, 38.9511625 ]
            },
            "properties" : {
              "ZIP_CO_PSA" : "66227KSCYKSOL1264PA",
              "WIRELESS_SCORE" : 3,
              "LONGITUDE" : -94.8767305,
              "LATITUDE" : 38.9511625
            }
        },
        {
            "type" : "Feature",
            "geometry" : {
              "type" : "Point",
              "coordinates" : [ -97.42578, 35.30035 ]
            },
            "properties" : {
              "ZIP_CO_PSA" : "73165OKCYOKSW2127PA",
              "WIRELESS_SCORE" : 5,
              "LONGITUDE" : -97.42578,
              "LATITUDE" : 35.30035
            }
        },
        {
            "type" : "Feature",
            "geometry" : {
              "type" : "Point",
              "coordinates" : [ -94.14431, 36.0785595 ]
            },
            "properties" : {
              "ZIP_CO_PSA" : "72701FYVLARHI6113LB",
              "WIRELESS_SCORE" : 4,
              "LONGITUDE" : -94.14431,
              "LATITUDE" : 36.0785595
            }
        },
        {
            "type" : "Feature",
            "geometry" : {
              "type" : "Point",
              "coordinates" : [ -95.813348, 36.266992 ]
            },
            "properties" : {
              "ZIP_CO_PSA" : "74055TULSOKOW2024PB",
              "WIRELESS_SCORE" : 4,
              "LONGITUDE" : -95.813348,
              "LATITUDE" : 36.266992
            }
        },
        {
            "type" : "Feature",
            "geometry" : {
              "type" : "Point",
              "coordinates" : [ -94.283749, 38.949545 ]
            },
            "properties" : {
              "ZIP_CO_PSA" : "64064KSCYMO412507PA",
              "WIRELESS_SCORE" : 4,
              "LONGITUDE" : -94.283749,
              "LATITUDE" : 38.949545
            }
        },
        {
            "type" : "Feature",
            "geometry" : {
              "type" : "Point",
              "coordinates" : [ -94.477244, 39.255191 ]
            },
            "properties" : {
              "ZIP_CO_PSA" : "64157KSCYMO424605PC",
              "WIRELESS_SCORE" : 4,
              "LONGITUDE" : -94.477244,
              "LATITUDE" : 39.255191
            }
        },
        {
            "type" : "Feature",
            "geometry" : {
              "type" : "Point",
              "coordinates" : [ -97.297197, 37.686865 ]
            },
            "properties" : {
              "ZIP_CO_PSA" : "67208WCHTKSOL4113PA",
              "WIRELESS_SCORE" : 3,
              "LONGITUDE" : -97.297197,
              "LATITUDE" : 37.686865
            }
        },
        {
            "type" : "Feature",
            "geometry" : {
              "type" : "Point",
              "coordinates" : [ -97.319718, 37.650834 ]
            },
            "properties" : {
              "ZIP_CO_PSA" : "67211WCHTKSAM2241PA",
              "WIRELESS_SCORE" : 3,
              "LONGITUDE" : -97.319718,
              "LATITUDE" : 37.650834
            }
        },
        {
            "type" : "Feature",
            "geometry" : {
              "type" : "Point",
              "coordinates" : [ -95.972338, 36.099032 ]
            },
            "properties" : {
              "ZIP_CO_PSA" : "74105TULSOKRI4036LA",
              "WIRELESS_SCORE" : 3,
              "LONGITUDE" : -95.972338,
              "LATITUDE" : 36.099032
            }
        },
        {
            "type" : "Feature",
            "geometry" : {
              "type" : "Point",
              "coordinates" : [ -95.623232, 36.2904305 ]
            },
            "properties" : {
              "ZIP_CO_PSA" : "74019CLRMOKMA3304PA",
              "WIRELESS_SCORE" : 3,
              "LONGITUDE" : -95.623232,
              "LATITUDE" : 36.2904305
            }
        },
        {
            "type" : "Feature",
            "geometry" : {
              "type" : "Point",
              "coordinates" : [ -94.049797, 36.032569 ]
            },
            "properties" : {
              "ZIP_CO_PSA" : "72701FYVLARHI2153PA",
              "WIRELESS_SCORE" : 3,
              "LONGITUDE" : -94.049797,
              "LATITUDE" : 36.032569
            }
        },
        {
            "type" : "Feature",
            "geometry" : {
              "type" : "Point",
              "coordinates" : [ -97.546445, 35.503337 ]
            },
            "properties" : {
              "ZIP_CO_PSA" : "73118OKCYOKUN4203PA",
              "WIRELESS_SCORE" : 3,
              "LONGITUDE" : -97.546445,
              "LATITUDE" : 35.503337
            }
        },
        {
            "type" : "Feature",
            "geometry" : {
              "type" : "Point",
              "coordinates" : [ -93.330424, 37.196222 ]
            },
            "properties" : {
              "ZIP_CO_PSA" : "65802SPFDMOMC4231PA",
              "WIRELESS_SCORE" : 3,
              "LONGITUDE" : -93.330424,
              "LATITUDE" : 37.196222
            }
        },
        {
            "type" : "Feature",
            "geometry" : {
              "type" : "Point",
              "coordinates" : [ -94.191944, 36.18978 ]
            },
            "properties" : {
              "ZIP_CO_PSA" : "72762SPDLARPL4335PC",
              "WIRELESS_SCORE" : 3,
              "LONGITUDE" : -94.191944,
              "LATITUDE" : 36.18978
            }
        },
        {
            "type" : "Feature",
            "geometry" : {
              "type" : "Point",
              "coordinates" : [ -90.6238, 38.4946 ]
            },
            "properties" : {
              "ZIP_CO_PSA" : "63025EURKMO533416PA",
              "WIRELESS_SCORE" : 3,
              "LONGITUDE" : -90.6238,
              "LATITUDE" : 38.4946
            }
        },
        {
            "type" : "Feature",
            "geometry" : {
              "type" : "Point",
              "coordinates" : [ -90.303869, 38.62684 ]
            },
            "properties" : {
              "ZIP_CO_PSA" : "63139STLSMO062205PA",
              "WIRELESS_SCORE" : 3,
              "LONGITUDE" : -90.303869,
              "LATITUDE" : 38.62684
            }
        },
        {
            "type" : "Feature",
            "geometry" : {
              "type" : "Point",
              "coordinates" : [ -90.29904, 38.63022 ]
            },
            "properties" : {
              "ZIP_CO_PSA" : "63139STLSMO062401PB",
              "WIRELESS_SCORE" : 3,
              "LONGITUDE" : -90.29904,
              "LATITUDE" : 38.63022
            }
        },
        {
            "type" : "Feature",
            "geometry" : {
              "type" : "Point",
              "coordinates" : [ -93.291219, 37.198801 ]
            },
            "properties" : {
              "ZIP_CO_PSA" : "65806SPFDMOMC3124PA",
              "WIRELESS_SCORE" : 3,
              "LONGITUDE" : -93.291219,
              "LATITUDE" : 37.198801
            }
        },
        {
            "type" : "Feature",
            "geometry" : {
              "type" : "Point",
              "coordinates" : [ -94.777739, 38.835946 ]
            },
            "properties" : {
              "ZIP_CO_PSA" : "66062KSCYKSOL3269LA",
              "WIRELESS_SCORE" : 3,
              "LONGITUDE" : -94.777739,
              "LATITUDE" : 38.835946
            }
        },
        {
            "type" : "Feature",
            "geometry" : {
              "type" : "Point",
              "coordinates" : [ -97.496737, 37.6882 ]
            },
            "properties" : {
              "ZIP_CO_PSA" : "67235WCHTKSCE4215PA",
              "WIRELESS_SCORE" : 3,
              "LONGITUDE" : -97.496737,
              "LATITUDE" : 37.6882
            }
        },
        {
            "type" : "Feature",
            "geometry" : {
              "type" : "Point",
              "coordinates" : [ -95.224216, 38.945982 ]
            },
            "properties" : {
              "ZIP_CO_PSA" : "66046LWRNKSVE2175PA",
              "WIRELESS_SCORE" : 3,
              "LONGITUDE" : -95.224216,
              "LATITUDE" : 38.945982
            }
        },
        {
            "type" : "Feature",
            "geometry" : {
              "type" : "Point",
              "coordinates" : [ -95.319637, 38.973552 ]
            },
            "properties" : {
              "ZIP_CO_PSA" : "66049LWRNKSVE3405PA",
              "WIRELESS_SCORE" : 3,
              "LONGITUDE" : -95.319637,
              "LATITUDE" : 38.973552
            }
        },
        {
            "type" : "Feature",
            "geometry" : {
              "type" : "Point",
              "coordinates" : [ -97.5439, 35.3386 ]
            },
            "properties" : {
              "ZIP_CO_PSA" : "73170OKCYOKPN3131PA",
              "WIRELESS_SCORE" : 3,
              "LONGITUDE" : -97.5439,
              "LATITUDE" : 35.3386
            }
        },
        {
            "type" : "Feature",
            "geometry" : {
              "type" : "Point",
              "coordinates" : [ -92.388311, 34.726447 ]
            },
            "properties" : {
              "ZIP_CO_PSA" : "72205LTRKARCA3148PA",
              "WIRELESS_SCORE" : 3,
              "LONGITUDE" : -92.388311,
              "LATITUDE" : 34.726447
            }
        },
        {
            "type" : "Feature",
            "geometry" : {
              "type" : "Point",
              "coordinates" : [ -94.578787, 39.088998 ]
            },
            "properties" : {
              "ZIP_CO_PSA" : "64108KSCYMO553122PA",
              "WIRELESS_SCORE" : 3,
              "LONGITUDE" : -94.578787,
              "LATITUDE" : 39.088998
            }
        },
        {
            "type" : "Feature",
            "geometry" : {
              "type" : "Point",
              "coordinates" : [ -97.729997, 35.5180015 ]
            },
            "properties" : {
              "ZIP_CO_PSA" : "73099YUKNOKMA2204PA",
              "WIRELESS_SCORE" : 4,
              "LONGITUDE" : -97.729997,
              "LATITUDE" : 35.5180015
            }
        },
        {
            "type" : "Feature",
            "geometry" : {
              "type" : "Point",
              "coordinates" : [ -94.106621, 36.1396745 ]
            },
            "properties" : {
              "ZIP_CO_PSA" : "72764SPDLARPL2616PA",
              "WIRELESS_SCORE" : 4,
              "LONGITUDE" : -94.106621,
              "LATITUDE" : 36.1396745
            }
        },
        {
            "type" : "Feature",
            "geometry" : {
              "type" : "Point",
              "coordinates" : [ -90.33869, 38.595553 ]
            },
            "properties" : {
              "ZIP_CO_PSA" : "63119STLSMO263106LA",
              "WIRELESS_SCORE" : 3,
              "LONGITUDE" : -90.33869,
              "LATITUDE" : 38.595553
            }
        },
        {
            "type" : "Feature",
            "geometry" : {
              "type" : "Point",
              "coordinates" : [ -97.546499, 35.758463 ]
            },
            "properties" : {
              "ZIP_CO_PSA" : "73025EDMDOKMA1422PA",
              "WIRELESS_SCORE" : 3,
              "LONGITUDE" : -97.546499,
              "LATITUDE" : 35.758463
            }
        },
        {
            "type" : "Feature",
            "geometry" : {
              "type" : "Point",
              "coordinates" : [ -90.212591, 38.6026 ]
            },
            "properties" : {
              "ZIP_CO_PSA" : "63104STLSMO082435LA",
              "WIRELESS_SCORE" : 3,
              "LONGITUDE" : -90.212591,
              "LATITUDE" : 38.6026
            }
        },
        {
            "type" : "Feature",
            "geometry" : {
              "type" : "Point",
              "coordinates" : [ -90.194489, 38.630971 ]
            },
            "properties" : {
              "ZIP_CO_PSA" : "63101STLSMO014212LA",
              "WIRELESS_SCORE" : 3,
              "LONGITUDE" : -90.194489,
              "LATITUDE" : 38.630971
            }
        },
        {
            "type" : "Feature",
            "geometry" : {
              "type" : "Point",
              "coordinates" : [ -97.50342, 35.319961 ]
            },
            "properties" : {
              "ZIP_CO_PSA" : "73160OKCYOKSW4203PA",
              "WIRELESS_SCORE" : 3,
              "LONGITUDE" : -97.50342,
              "LATITUDE" : 35.319961
            }
        },
        {
            "type" : "Feature",
            "geometry" : {
              "type" : "Point",
              "coordinates" : [ -97.218193, 37.656344 ]
            },
            "properties" : {
              "ZIP_CO_PSA" : "67207WCHTKSOL2269PA",
              "WIRELESS_SCORE" : 3,
              "LONGITUDE" : -97.218193,
              "LATITUDE" : 37.656344
            }
        },
        {
            "type" : "Feature",
            "geometry" : {
              "type" : "Point",
              "coordinates" : [ -92.427446, 34.869092 ]
            },
            "properties" : {
              "ZIP_CO_PSA" : "72113LTRKARUL3172PA",
              "WIRELESS_SCORE" : 3,
              "LONGITUDE" : -92.427446,
              "LATITUDE" : 34.869092
            }
        },
        {
            "type" : "Feature",
            "geometry" : {
              "type" : "Point",
              "coordinates" : [ -92.343459, 34.7587395 ]
            },
            "properties" : {
              "ZIP_CO_PSA" : "72205LTRKARMO1528PA",
              "WIRELESS_SCORE" : 3,
              "LONGITUDE" : -92.343459,
              "LATITUDE" : 34.7587395
            }
        },
        {
            "type" : "Feature",
            "geometry" : {
              "type" : "Point",
              "coordinates" : [ -93.287077, 37.062984 ]
            },
            "properties" : {
              "ZIP_CO_PSA" : "65714NIXAMOAA1420PA",
              "WIRELESS_SCORE" : 3,
              "LONGITUDE" : -93.287077,
              "LATITUDE" : 37.062984
            }
        },
        {
            "type" : "Feature",
            "geometry" : {
              "type" : "Point",
              "coordinates" : [ -93.2956, 37.0521 ]
            },
            "properties" : {
              "ZIP_CO_PSA" : "65714NIXAMOAA1416PB",
              "WIRELESS_SCORE" : 3,
              "LONGITUDE" : -93.2956,
              "LATITUDE" : 37.0521
            }
        },
        {
            "type" : "Feature",
            "geometry" : {
              "type" : "Point",
              "coordinates" : [ -90.359153, 38.590854 ]
            },
            "properties" : {
              "ZIP_CO_PSA" : "63119STLSMO261101LA",
              "WIRELESS_SCORE" : 3,
              "LONGITUDE" : -90.359153,
              "LATITUDE" : 38.590854
            }
        },
        {
            "type" : "Feature",
            "geometry" : {
              "type" : "Point",
              "coordinates" : [ -94.345283, 39.138542 ]
            },
            "properties" : {
              "ZIP_CO_PSA" : "64058KSCYMO441221PA",
              "WIRELESS_SCORE" : 3,
              "LONGITUDE" : -94.345283,
              "LATITUDE" : 39.138542
            }
        },
        {
            "type" : "Feature",
            "geometry" : {
              "type" : "Point",
              "coordinates" : [ -90.213287, 38.601254 ]
            },
            "properties" : {
              "ZIP_CO_PSA" : "63118STLSMO082435LA",
              "WIRELESS_SCORE" : 3,
              "LONGITUDE" : -90.213287,
              "LATITUDE" : 38.601254
            }
        },
        {
            "type" : "Feature",
            "geometry" : {
              "type" : "Point",
              "coordinates" : [ -90.354135, 38.673582 ]
            },
            "properties" : {
              "ZIP_CO_PSA" : "63132STLSMO212601PB",
              "WIRELESS_SCORE" : 3,
              "LONGITUDE" : -90.354135,
              "LATITUDE" : 38.673582
            }
        },
        {
            "type" : "Feature",
            "geometry" : {
              "type" : "Point",
              "coordinates" : [ -89.913492, 38.581664 ]
            },
            "properties" : {
              "ZIP_CO_PSA" : "62269OFLNILMQ3001PC",
              "WIRELESS_SCORE" : 3,
              "LONGITUDE" : -89.913492,
              "LATITUDE" : 38.581664
            }
        },
        {
            "type" : "Feature",
            "geometry" : {
              "type" : "Point",
              "coordinates" : [ -90.2671, 38.6266 ]
            },
            "properties" : {
              "ZIP_CO_PSA" : "63110STLSMO081319PA",
              "WIRELESS_SCORE" : 3,
              "LONGITUDE" : -90.2671,
              "LATITUDE" : 38.6266
            }
        },
        {
            "type" : "Feature",
            "geometry" : {
              "type" : "Point",
              "coordinates" : [ -94.636737, 39.223539 ]
            },
            "properties" : {
              "ZIP_CO_PSA" : "64151KSCYMO231208PA",
              "WIRELESS_SCORE" : 3,
              "LONGITUDE" : -94.636737,
              "LATITUDE" : 39.223539
            }
        },
        {
            "type" : "Feature",
            "geometry" : {
              "type" : "Point",
              "coordinates" : [ -92.375218, 34.848864 ]
            },
            "properties" : {
              "ZIP_CO_PSA" : "72113LTRKARSK4328PA",
              "WIRELESS_SCORE" : 3,
              "LONGITUDE" : -92.375218,
              "LATITUDE" : 34.848864
            }
        },
        {
            "type" : "Feature",
            "geometry" : {
              "type" : "Point",
              "coordinates" : [ -94.153324, 36.078887 ]
            },
            "properties" : {
              "ZIP_CO_PSA" : "72703FYVLARHI6109PA",
              "WIRELESS_SCORE" : 3,
              "LONGITUDE" : -94.153324,
              "LATITUDE" : 36.078887
            }
        },
        {
            "type" : "Feature",
            "geometry" : {
              "type" : "Point",
              "coordinates" : [ -95.237454, 38.9490515 ]
            },
            "properties" : {
              "ZIP_CO_PSA" : "66046LWRNKSVE2183PA",
              "WIRELESS_SCORE" : 3,
              "LONGITUDE" : -95.237454,
              "LATITUDE" : 38.9490515
            }
        },
        {
            "type" : "Feature",
            "geometry" : {
              "type" : "Point",
              "coordinates" : [ -97.694661, 35.615229 ]
            },
            "properties" : {
              "ZIP_CO_PSA" : "73099PDMTOKMA2109PB",
              "WIRELESS_SCORE" : 3,
              "LONGITUDE" : -97.694661,
              "LATITUDE" : 35.615229
            }
        },
        {
            "type" : "Feature",
            "geometry" : {
              "type" : "Point",
              "coordinates" : [ -97.4567435, 35.625936 ]
            },
            "properties" : {
              "ZIP_CO_PSA" : "73013EDMDOKMA3131PA",
              "WIRELESS_SCORE" : 3,
              "LONGITUDE" : -97.4567435,
              "LATITUDE" : 35.625936
            }
        },
        {
            "type" : "Feature",
            "geometry" : {
              "type" : "Point",
              "coordinates" : [ -97.7544555, 35.465286 ]
            },
            "properties" : {
              "ZIP_CO_PSA" : "73099YUKNOKSO1206PD",
              "WIRELESS_SCORE" : 3,
              "LONGITUDE" : -97.7544555,
              "LATITUDE" : 35.465286
            }
        },
        {
            "type" : "Feature",
            "geometry" : {
              "type" : "Point",
              "coordinates" : [ -94.58476, 39.098198 ]
            },
            "properties" : {
              "ZIP_CO_PSA" : "64105KSCYMO551319PA",
              "WIRELESS_SCORE" : 3,
              "LONGITUDE" : -94.58476,
              "LATITUDE" : 39.098198
            }
        },
        {
            "type" : "Feature",
            "geometry" : {
              "type" : "Point",
              "coordinates" : [ -94.342582, 35.320274 ]
            },
            "properties" : {
              "ZIP_CO_PSA" : "72916FTSMARGL3106PB",
              "WIRELESS_SCORE" : 4,
              "LONGITUDE" : -94.342582,
              "LATITUDE" : 35.320274
            }
        },
        {
            "type" : "Feature",
            "geometry" : {
              "type" : "Point",
              "coordinates" : [ -97.46928, 37.645133 ]
            },
            "properties" : {
              "ZIP_CO_PSA" : "67215WCHTKSCE3207PB",
              "WIRELESS_SCORE" : 4,
              "LONGITUDE" : -97.46928,
              "LATITUDE" : 37.645133
            }
        },
        {
            "type" : "Feature",
            "geometry" : {
              "type" : "Point",
              "coordinates" : [ -94.224771, 36.34947 ]
            },
            "properties" : {
              "ZIP_CO_PSA" : "72713BNTVARCR3613PA",
              "WIRELESS_SCORE" : 4,
              "LONGITUDE" : -94.224771,
              "LATITUDE" : 36.34947
            }
        },
        {
            "type" : "Feature",
            "geometry" : {
              "type" : "Point",
              "coordinates" : [ -93.227252, 37.190351 ]
            },
            "properties" : {
              "ZIP_CO_PSA" : "65804SPFDMOTU1704PA",
              "WIRELESS_SCORE" : 4,
              "LONGITUDE" : -93.227252,
              "LATITUDE" : 37.190351
            }
        },
        {
            "type" : "Feature",
            "geometry" : {
              "type" : "Point",
              "coordinates" : [ -90.50576, 38.671978 ]
            },
            "properties" : {
              "ZIP_CO_PSA" : "63017STLSMO274108PB",
              "WIRELESS_SCORE" : 3,
              "LONGITUDE" : -90.50576,
              "LATITUDE" : 38.671978
            }
        },
        {
            "type" : "Feature",
            "geometry" : {
              "type" : "Point",
              "coordinates" : [ -90.302991, 38.653706 ]
            },
            "properties" : {
              "ZIP_CO_PSA" : "63130STLSMO073101PB",
              "WIRELESS_SCORE" : 3,
              "LONGITUDE" : -90.302991,
              "LATITUDE" : 38.653706
            }
        },
        {
            "type" : "Feature",
            "geometry" : {
              "type" : "Point",
              "coordinates" : [ -97.572495, 35.499274 ]
            },
            "properties" : {
              "ZIP_CO_PSA" : "73107OKCYOKWI2110LB",
              "WIRELESS_SCORE" : 3,
              "LONGITUDE" : -97.572495,
              "LATITUDE" : 35.499274
            }
        },
        {
            "type" : "Feature",
            "geometry" : {
              "type" : "Point",
              "coordinates" : [ -94.12475, 36.288213 ]
            },
            "properties" : {
              "ZIP_CO_PSA" : "72758RGRSARMA3517PA",
              "WIRELESS_SCORE" : 3,
              "LONGITUDE" : -94.12475,
              "LATITUDE" : 36.288213
            }
        },
        {
            "type" : "Feature",
            "geometry" : {
              "type" : "Point",
              "coordinates" : [ -94.54116, 39.236444 ]
            },
            "properties" : {
              "ZIP_CO_PSA" : "64119KSCYMO202501PA",
              "WIRELESS_SCORE" : 3,
              "LONGITUDE" : -94.54116,
              "LATITUDE" : 39.236444
            }
        },
        {
            "type" : "Feature",
            "geometry" : {
              "type" : "Point",
              "coordinates" : [ -89.517702, 38.619656 ]
            },
            "properties" : {
              "ZIP_CO_PSA" : "62230BRESILBS1003PA",
              "WIRELESS_SCORE" : 4,
              "LONGITUDE" : -89.517702,
              "LATITUDE" : 38.619656
            }
        },
        {
            "type" : "Feature",
            "geometry" : {
              "type" : "Point",
              "coordinates" : [ -94.523617, 39.282017 ]
            },
            "properties" : {
              "ZIP_CO_PSA" : "64156KSCYMO202160PA",
              "WIRELESS_SCORE" : 4,
              "LONGITUDE" : -94.523617,
              "LATITUDE" : 39.282017
            }
        },
        {
            "type" : "Feature",
            "geometry" : {
              "type" : "Point",
              "coordinates" : [ -92.602651, 34.60527 ]
            },
            "properties" : {
              "ZIP_CO_PSA" : "72019BNTNARNO2217PA",
              "WIRELESS_SCORE" : 4,
              "LONGITUDE" : -92.602651,
              "LATITUDE" : 34.60527
            }
        },
        {
            "type" : "Feature",
            "geometry" : {
              "type" : "Point",
              "coordinates" : [ -97.4929025, 35.499156 ]
            },
            "properties" : {
              "ZIP_CO_PSA" : "73111OKCYOKGA4202PA",
              "WIRELESS_SCORE" : 4,
              "LONGITUDE" : -97.4929025,
              "LATITUDE" : 35.499156
            }
        },
        {
            "type" : "Feature",
            "geometry" : {
              "type" : "Point",
              "coordinates" : [ -97.597607, 35.69419 ]
            },
            "properties" : {
              "ZIP_CO_PSA" : "73012EDMDOKMA4503PA",
              "WIRELESS_SCORE" : 4,
              "LONGITUDE" : -97.597607,
              "LATITUDE" : 35.69419
            }
        },
        {
            "type" : "Feature",
            "geometry" : {
              "type" : "Point",
              "coordinates" : [ -97.6726275, 35.6008375 ]
            },
            "properties" : {
              "ZIP_CO_PSA" : "73142OKCYOKPA1416PD",
              "WIRELESS_SCORE" : 4,
              "LONGITUDE" : -97.6726275,
              "LATITUDE" : 35.6008375
            }
        },
        {
            "type" : "Feature",
            "geometry" : {
              "type" : "Point",
              "coordinates" : [ -90.527493, 38.768487 ]
            },
            "properties" : {
              "ZIP_CO_PSA" : "63303STCHMO632319PA",
              "WIRELESS_SCORE" : 3,
              "LONGITUDE" : -90.527493,
              "LATITUDE" : 38.768487
            }
        },
        {
            "type" : "Feature",
            "geometry" : {
              "type" : "Point",
              "coordinates" : [ -94.337799, 38.9286575 ]
            },
            "properties" : {
              "ZIP_CO_PSA" : "64086KSCYMO412303PA",
              "WIRELESS_SCORE" : 3,
              "LONGITUDE" : -94.337799,
              "LATITUDE" : 38.9286575
            }
        },
        {
            "type" : "Feature",
            "geometry" : {
              "type" : "Point",
              "coordinates" : [ -94.579189, 39.07177 ]
            },
            "properties" : {
              "ZIP_CO_PSA" : "64108KSCYMO051128PA",
              "WIRELESS_SCORE" : 3,
              "LONGITUDE" : -94.579189,
              "LATITUDE" : 39.07177
            }
        },
        {
            "type" : "Feature",
            "geometry" : {
              "type" : "Point",
              "coordinates" : [ -94.2613, 36.3496 ]
            },
            "properties" : {
              "ZIP_CO_PSA" : "72713BNTVARCR3429PD",
              "WIRELESS_SCORE" : 3,
              "LONGITUDE" : -94.2613,
              "LATITUDE" : 36.3496
            }
        },
        {
            "type" : "Feature",
            "geometry" : {
              "type" : "Point",
              "coordinates" : [ -95.980949, 36.136767 ]
            },
            "properties" : {
              "ZIP_CO_PSA" : "74120TULSOKTB2220LA",
              "WIRELESS_SCORE" : 3,
              "LONGITUDE" : -95.980949,
              "LATITUDE" : 36.136767
            }
        },
        {
            "type" : "Feature",
            "geometry" : {
              "type" : "Point",
              "coordinates" : [ -92.216205, 34.850208 ]
            },
            "properties" : {
              "ZIP_CO_PSA" : "72120LTRKARTE2101PB",
              "WIRELESS_SCORE" : 3,
              "LONGITUDE" : -92.216205,
              "LATITUDE" : 34.850208
            }
        },
        {
            "type" : "Feature",
            "geometry" : {
              "type" : "Point",
              "coordinates" : [ -97.4297, 35.259199 ]
            },
            "properties" : {
              "ZIP_CO_PSA" : "73071NRMNOKMA1239PD",
              "WIRELESS_SCORE" : 3,
              "LONGITUDE" : -97.4297,
              "LATITUDE" : 35.259199
            }
        },
        {
            "type" : "Feature",
            "geometry" : {
              "type" : "Point",
              "coordinates" : [ -90.34019, 38.72215 ]
            },
            "properties" : {
              "ZIP_CO_PSA" : "63134STLSMO231113LA",
              "WIRELESS_SCORE" : 3,
              "LONGITUDE" : -90.34019,
              "LATITUDE" : 38.72215
            }
        },
        {
            "type" : "Feature",
            "geometry" : {
              "type" : "Point",
              "coordinates" : [ -90.412757, 38.676372 ]
            },
            "properties" : {
              "ZIP_CO_PSA" : "63141STLSMO211305PA",
              "WIRELESS_SCORE" : 3,
              "LONGITUDE" : -90.412757,
              "LATITUDE" : 38.676372
            }
        },
        {
            "type" : "Feature",
            "geometry" : {
              "type" : "Point",
              "coordinates" : [ -92.314175, 34.745963 ]
            },
            "properties" : {
              "ZIP_CO_PSA" : "72205LTRKARMO2204PA",
              "WIRELESS_SCORE" : 3,
              "LONGITUDE" : -92.314175,
              "LATITUDE" : 34.745963
            }
        },
        {
            "type" : "Feature",
            "geometry" : {
              "type" : "Point",
              "coordinates" : [ -90.226769, 38.604944 ]
            },
            "properties" : {
              "ZIP_CO_PSA" : "63118STLSMO082114PA",
              "WIRELESS_SCORE" : 3,
              "LONGITUDE" : -90.226769,
              "LATITUDE" : 38.604944
            }
        },
        {
            "type" : "Feature",
            "geometry" : {
              "type" : "Point",
              "coordinates" : [ -90.739699, 38.740056 ]
            },
            "properties" : {
              "ZIP_CO_PSA" : "63368WDSPMO018950PB",
              "WIRELESS_SCORE" : 3,
              "LONGITUDE" : -90.739699,
              "LATITUDE" : 38.740056
            }
        },
        {
            "type" : "Feature",
            "geometry" : {
              "type" : "Point",
              "coordinates" : [ -90.264966, 38.611757 ]
            },
            "properties" : {
              "ZIP_CO_PSA" : "63110STLSMO084401LA",
              "WIRELESS_SCORE" : 3,
              "LONGITUDE" : -90.264966,
              "LATITUDE" : 38.611757
            }
        },
        {
            "type" : "Feature",
            "geometry" : {
              "type" : "Point",
              "coordinates" : [ -94.587891, 39.0622915 ]
            },
            "properties" : {
              "ZIP_CO_PSA" : "64111KSCYMO051303LA",
              "WIRELESS_SCORE" : 3,
              "LONGITUDE" : -94.587891,
              "LATITUDE" : 39.0622915
            }
        },
        {
            "type" : "Feature",
            "geometry" : {
              "type" : "Point",
              "coordinates" : [ -94.160999, 36.057102 ]
            },
            "properties" : {
              "ZIP_CO_PSA" : "72701FYVLARHI3115LA",
              "WIRELESS_SCORE" : 3,
              "LONGITUDE" : -94.160999,
              "LATITUDE" : 36.057102
            }
        },
        {
            "type" : "Feature",
            "geometry" : {
              "type" : "Point",
              "coordinates" : [ -92.281949, 34.783162 ]
            },
            "properties" : {
              "ZIP_CO_PSA" : "72118LTRKARSK4207PA",
              "WIRELESS_SCORE" : 3,
              "LONGITUDE" : -92.281949,
              "LATITUDE" : 34.783162
            }
        },
        {
            "type" : "Feature",
            "geometry" : {
              "type" : "Point",
              "coordinates" : [ -97.731436, 35.445962 ]
            },
            "properties" : {
              "ZIP_CO_PSA" : "73099YUKNOKSO2100PB",
              "WIRELESS_SCORE" : 3,
              "LONGITUDE" : -97.731436,
              "LATITUDE" : 35.445962
            }
        },
        {
            "type" : "Feature",
            "geometry" : {
              "type" : "Point",
              "coordinates" : [ -95.96354, 36.080728 ]
            },
            "properties" : {
              "ZIP_CO_PSA" : "74105TULSOKRI3042LB",
              "WIRELESS_SCORE" : 3,
              "LONGITUDE" : -95.96354,
              "LATITUDE" : 36.080728
            }
        },
        {
            "type" : "Feature",
            "geometry" : {
              "type" : "Point",
              "coordinates" : [ -95.759021, 36.182 ]
            },
            "properties" : {
              "ZIP_CO_PSA" : "74015TULSOKAM1118PA",
              "WIRELESS_SCORE" : 3,
              "LONGITUDE" : -95.759021,
              "LATITUDE" : 36.182
            }
        },
        {
            "type" : "Feature",
            "geometry" : {
              "type" : "Point",
              "coordinates" : [ -97.4744, 35.2264 ]
            },
            "properties" : {
              "ZIP_CO_PSA" : "73069NRMNOKMA1305PC",
              "WIRELESS_SCORE" : 3,
              "LONGITUDE" : -97.4744,
              "LATITUDE" : 35.2264
            }
        },
        {
            "type" : "Feature",
            "geometry" : {
              "type" : "Point",
              "coordinates" : [ -94.284815, 39.0066285 ]
            },
            "properties" : {
              "ZIP_CO_PSA" : "64015BLSPMOCA3103LA",
              "WIRELESS_SCORE" : 4,
              "LONGITUDE" : -94.284815,
              "LATITUDE" : 39.0066285
            }
        },
        {
            "type" : "Feature",
            "geometry" : {
              "type" : "Point",
              "coordinates" : [ -95.960003, 36.022201 ]
            },
            "properties" : {
              "ZIP_CO_PSA" : "74037TULSOKJE2702PA",
              "WIRELESS_SCORE" : 4,
              "LONGITUDE" : -95.960003,
              "LATITUDE" : 36.022201
            }
        },
        {
            "type" : "Feature",
            "geometry" : {
              "type" : "Point",
              "coordinates" : [ -97.7315, 35.5057 ]
            },
            "properties" : {
              "ZIP_CO_PSA" : "73099OKCYOKPA1212PA",
              "WIRELESS_SCORE" : 4,
              "LONGITUDE" : -97.7315,
              "LATITUDE" : 35.5057
            }
        },
        {
            "type" : "Feature",
            "geometry" : {
              "type" : "Point",
              "coordinates" : [ -93.2144, 37.2091 ]
            },
            "properties" : {
              "ZIP_CO_PSA" : "65802SPFDMOMC2413PB",
              "WIRELESS_SCORE" : 3,
              "LONGITUDE" : -93.2144,
              "LATITUDE" : 37.2091
            }
        },
        {
            "type" : "Feature",
            "geometry" : {
              "type" : "Point",
              "coordinates" : [ -94.6471465, 39.227675 ]
            },
            "properties" : {
              "ZIP_CO_PSA" : "64151KSCYMO231234PA",
              "WIRELESS_SCORE" : 3,
              "LONGITUDE" : -94.6471465,
              "LATITUDE" : 39.227675
            }
        },
        {
            "type" : "Feature",
            "geometry" : {
              "type" : "Point",
              "coordinates" : [ -97.666325, 35.4253 ]
            },
            "properties" : {
              "ZIP_CO_PSA" : "73179OKCYOKWH1301PB",
              "WIRELESS_SCORE" : 3,
              "LONGITUDE" : -97.666325,
              "LATITUDE" : 35.4253
            }
        },
        {
            "type" : "Feature",
            "geometry" : {
              "type" : "Point",
              "coordinates" : [ -97.291619, 37.692057 ]
            },
            "properties" : {
              "ZIP_CO_PSA" : "67208WCHTKSOL4127PA",
              "WIRELESS_SCORE" : 3,
              "LONGITUDE" : -97.291619,
              "LATITUDE" : 37.692057
            }
        },
        {
            "type" : "Feature",
            "geometry" : {
              "type" : "Point",
              "coordinates" : [ -97.39565, 35.439992 ]
            },
            "properties" : {
              "ZIP_CO_PSA" : "73110OKCYOKPE2105PA",
              "WIRELESS_SCORE" : 3,
              "LONGITUDE" : -97.39565,
              "LATITUDE" : 35.439992
            }
        },
        {
            "type" : "Feature",
            "geometry" : {
              "type" : "Point",
              "coordinates" : [ -92.366854, 34.722992 ]
            },
            "properties" : {
              "ZIP_CO_PSA" : "72204LTRKARCA2130PA",
              "WIRELESS_SCORE" : 3,
              "LONGITUDE" : -92.366854,
              "LATITUDE" : 34.722992
            }
        },
        {
            "type" : "Feature",
            "geometry" : {
              "type" : "Point",
              "coordinates" : [ -97.44097, 35.703248 ]
            },
            "properties" : {
              "ZIP_CO_PSA" : "73034EDMDOKMA1124PB",
              "WIRELESS_SCORE" : 3,
              "LONGITUDE" : -97.44097,
              "LATITUDE" : 35.703248
            }
        },
        {
            "type" : "Feature",
            "geometry" : {
              "type" : "Point",
              "coordinates" : [ -97.6790125, 35.6115125 ]
            },
            "properties" : {
              "ZIP_CO_PSA" : "73099PDMTOKMA2109PA",
              "WIRELESS_SCORE" : 4,
              "LONGITUDE" : -97.6790125,
              "LATITUDE" : 35.6115125
            }
        },
        {
            "type" : "Feature",
            "geometry" : {
              "type" : "Point",
              "coordinates" : [ -94.4029905, 35.3515575 ]
            },
            "properties" : {
              "ZIP_CO_PSA" : "72901FTSMARMI1406PA",
              "WIRELESS_SCORE" : 3,
              "LONGITUDE" : -94.4029905,
              "LATITUDE" : 35.3515575
            }
        },
        {
            "type" : "Feature",
            "geometry" : {
              "type" : "Point",
              "coordinates" : [ -90.34419, 38.67203 ]
            },
            "properties" : {
              "ZIP_CO_PSA" : "63130STLSMO212601PB",
              "WIRELESS_SCORE" : 3,
              "LONGITUDE" : -90.34419,
              "LATITUDE" : 38.67203
            }
        },
        {
            "type" : "Feature",
            "geometry" : {
              "type" : "Point",
              "coordinates" : [ -94.669487, 38.983346 ]
            },
            "properties" : {
              "ZIP_CO_PSA" : "66204KSCYKSNA1169PA",
              "WIRELESS_SCORE" : 3,
              "LONGITUDE" : -94.669487,
              "LATITUDE" : 38.983346
            }
        },
        {
            "type" : "Feature",
            "geometry" : {
              "type" : "Point",
              "coordinates" : [ -94.665398, 38.966441 ]
            },
            "properties" : {
              "ZIP_CO_PSA" : "66212KSCYKSNA1151PA",
              "WIRELESS_SCORE" : 3,
              "LONGITUDE" : -94.665398,
              "LATITUDE" : 38.966441
            }
        },
        {
            "type" : "Feature",
            "geometry" : {
              "type" : "Point",
              "coordinates" : [ -97.418723, 37.69523 ]
            },
            "properties" : {
              "ZIP_CO_PSA" : "67212WCHTKSNW4203PA",
              "WIRELESS_SCORE" : 3,
              "LONGITUDE" : -97.418723,
              "LATITUDE" : 37.69523
            }
        },
        {
            "type" : "Feature",
            "geometry" : {
              "type" : "Point",
              "coordinates" : [ -94.243106, 39.0055915 ]
            },
            "properties" : {
              "ZIP_CO_PSA" : "64014BLSPMOCA3409LA",
              "WIRELESS_SCORE" : 3,
              "LONGITUDE" : -94.243106,
              "LATITUDE" : 39.0055915
            }
        },
        {
            "type" : "Feature",
            "geometry" : {
              "type" : "Point",
              "coordinates" : [ -94.201335, 36.183213 ]
            },
            "properties" : {
              "ZIP_CO_PSA" : "72762SPDLARFO2109LB",
              "WIRELESS_SCORE" : 3,
              "LONGITUDE" : -94.201335,
              "LATITUDE" : 36.183213
            }
        },
        {
            "type" : "Feature",
            "geometry" : {
              "type" : "Point",
              "coordinates" : [ -97.620898, 35.5165965 ]
            },
            "properties" : {
              "ZIP_CO_PSA" : "73122OKCYOKSU1134PA",
              "WIRELESS_SCORE" : 3,
              "LONGITUDE" : -97.620898,
              "LATITUDE" : 35.5165965
            }
        },
        {
            "type" : "Feature",
            "geometry" : {
              "type" : "Point",
              "coordinates" : [ -92.3530155, 34.7771255 ]
            },
            "properties" : {
              "ZIP_CO_PSA" : "72207LTRKARMO1262LA",
              "WIRELESS_SCORE" : 3,
              "LONGITUDE" : -92.3530155,
              "LATITUDE" : 34.7771255
            }
        },
        {
            "type" : "Feature",
            "geometry" : {
              "type" : "Point",
              "coordinates" : [ -94.801211, 38.863631 ]
            },
            "properties" : {
              "ZIP_CO_PSA" : "66062KSCYKSOL2183LA",
              "WIRELESS_SCORE" : 3,
              "LONGITUDE" : -94.801211,
              "LATITUDE" : 38.863631
            }
        },
        {
            "type" : "Feature",
            "geometry" : {
              "type" : "Point",
              "coordinates" : [ -90.241935, 38.686912 ]
            },
            "properties" : {
              "ZIP_CO_PSA" : "63115STLSMO021309PB",
              "WIRELESS_SCORE" : 3,
              "LONGITUDE" : -90.241935,
              "LATITUDE" : 38.686912
            }
        },
        {
            "type" : "Feature",
            "geometry" : {
              "type" : "Point",
              "coordinates" : [ -94.6559345, 38.9542795 ]
            },
            "properties" : {
              "ZIP_CO_PSA" : "66207KSCYKSNA4105LA",
              "WIRELESS_SCORE" : 3,
              "LONGITUDE" : -94.6559345,
              "LATITUDE" : 38.9542795
            }
        },
        {
            "type" : "Feature",
            "geometry" : {
              "type" : "Point",
              "coordinates" : [ -97.57182, 35.56881 ]
            },
            "properties" : {
              "ZIP_CO_PSA" : "73120OKCYOKSK3408LA",
              "WIRELESS_SCORE" : 3,
              "LONGITUDE" : -97.57182,
              "LATITUDE" : 35.56881
            }
        },
        {
            "type" : "Feature",
            "geometry" : {
              "type" : "Point",
              "coordinates" : [ -94.165979, 36.148542 ]
            },
            "properties" : {
              "ZIP_CO_PSA" : "72762SPDLARPL4322PA",
              "WIRELESS_SCORE" : 3,
              "LONGITUDE" : -94.165979,
              "LATITUDE" : 36.148542
            }
        },
        {
            "type" : "Feature",
            "geometry" : {
              "type" : "Point",
              "coordinates" : [ -97.4293065, 35.26378 ]
            },
            "properties" : {
              "ZIP_CO_PSA" : "73071NRMNOKMA1239PC",
              "WIRELESS_SCORE" : 3,
              "LONGITUDE" : -97.4293065,
              "LATITUDE" : 35.26378
            }
        },
        {
            "type" : "Feature",
            "geometry" : {
              "type" : "Point",
              "coordinates" : [ -94.256636, 36.356669 ]
            },
            "properties" : {
              "ZIP_CO_PSA" : "72719BNTVARCR3429PE",
              "WIRELESS_SCORE" : 3,
              "LONGITUDE" : -94.256636,
              "LATITUDE" : 36.356669
            }
        },
        {
            "type" : "Feature",
            "geometry" : {
              "type" : "Point",
              "coordinates" : [ -90.489291, 38.824973 ]
            },
            "properties" : {
              "ZIP_CO_PSA" : "63301STCHMO631126PA",
              "WIRELESS_SCORE" : 3,
              "LONGITUDE" : -90.489291,
              "LATITUDE" : 38.824973
            }
        },
        {
            "type" : "Feature",
            "geometry" : {
              "type" : "Point",
              "coordinates" : [ -90.327473, 38.62508 ]
            },
            "properties" : {
              "ZIP_CO_PSA" : "63117STLSMO061401LA",
              "WIRELESS_SCORE" : 3,
              "LONGITUDE" : -90.327473,
              "LATITUDE" : 38.62508
            }
        },
        {
            "type" : "Feature",
            "geometry" : {
              "type" : "Point",
              "coordinates" : [ -90.31743, 38.788397 ]
            },
            "properties" : {
              "ZIP_CO_PSA" : "63033STLSMO403110LA",
              "WIRELESS_SCORE" : 3,
              "LONGITUDE" : -90.31743,
              "LATITUDE" : 38.788397
            }
        },
        {
            "type" : "Feature",
            "geometry" : {
              "type" : "Point",
              "coordinates" : [ -95.998373, 36.1695885 ]
            },
            "properties" : {
              "ZIP_CO_PSA" : "74106TULSOKTB4118PA",
              "WIRELESS_SCORE" : 3,
              "LONGITUDE" : -95.998373,
              "LATITUDE" : 36.1695885
            }
        },
        {
            "type" : "Feature",
            "geometry" : {
              "type" : "Point",
              "coordinates" : [ -96.004541, 36.155052 ]
            },
            "properties" : {
              "ZIP_CO_PSA" : "74127TULSOKTB4226PA",
              "WIRELESS_SCORE" : 3,
              "LONGITUDE" : -96.004541,
              "LATITUDE" : 36.155052
            }
        },
        {
            "type" : "Feature",
            "geometry" : {
              "type" : "Point",
              "coordinates" : [ -94.48221, 39.220933 ]
            },
            "properties" : {
              "ZIP_CO_PSA" : "64068KSCYMO424409PB",
              "WIRELESS_SCORE" : 3,
              "LONGITUDE" : -94.48221,
              "LATITUDE" : 39.220933
            }
        },
        {
            "type" : "Feature",
            "geometry" : {
              "type" : "Point",
              "coordinates" : [ -93.338817, 37.187896 ]
            },
            "properties" : {
              "ZIP_CO_PSA" : "65807SPFDMOMC4313PA",
              "WIRELESS_SCORE" : 4,
              "LONGITUDE" : -93.338817,
              "LATITUDE" : 37.187896
            }
        },
        {
            "type" : "Feature",
            "geometry" : {
              "type" : "Point",
              "coordinates" : [ -95.937803, 36.1425255 ]
            },
            "properties" : {
              "ZIP_CO_PSA" : "74112TULSOKRI2118LC",
              "WIRELESS_SCORE" : 4,
              "LONGITUDE" : -95.937803,
              "LATITUDE" : 36.1425255
            }
        },
        {
            "type" : "Feature",
            "geometry" : {
              "type" : "Point",
              "coordinates" : [ -90.588017, 38.589273 ]
            },
            "properties" : {
              "ZIP_CO_PSA" : "63021MNCHMO594130PA",
              "WIRELESS_SCORE" : 4,
              "LONGITUDE" : -90.588017,
              "LATITUDE" : 38.589273
            }
        },
        {
            "type" : "Feature",
            "geometry" : {
              "type" : "Point",
              "coordinates" : [ -93.274246, 37.204092 ]
            },
            "properties" : {
              "ZIP_CO_PSA" : "65802SPFDMOMC2157PA",
              "WIRELESS_SCORE" : 3,
              "LONGITUDE" : -93.274246,
              "LATITUDE" : 37.204092
            }
        },
        {
            "type" : "Feature",
            "geometry" : {
              "type" : "Point",
              "coordinates" : [ -90.454908, 38.7007 ]
            },
            "properties" : {
              "ZIP_CO_PSA" : "63146STLSMO271109PA",
              "WIRELESS_SCORE" : 3,
              "LONGITUDE" : -90.454908,
              "LATITUDE" : 38.7007
            }
        },
        {
            "type" : "Feature",
            "geometry" : {
              "type" : "Point",
              "coordinates" : [ -94.1783535, 36.2673065 ]
            },
            "properties" : {
              "ZIP_CO_PSA" : "72758RGRSARMA3152PB",
              "WIRELESS_SCORE" : 3,
              "LONGITUDE" : -94.1783535,
              "LATITUDE" : 36.2673065
            }
        },
        {
            "type" : "Feature",
            "geometry" : {
              "type" : "Point",
              "coordinates" : [ -97.620567, 35.653161 ]
            },
            "properties" : {
              "ZIP_CO_PSA" : "73012EDMDOKMA4135PA",
              "WIRELESS_SCORE" : 3,
              "LONGITUDE" : -97.620567,
              "LATITUDE" : 35.653161
            }
        },
        {
            "type" : "Feature",
            "geometry" : {
              "type" : "Point",
              "coordinates" : [ -97.554655, 35.524275 ]
            },
            "properties" : {
              "ZIP_CO_PSA" : "73112EDMDOKMA4126PA",
              "WIRELESS_SCORE" : 3,
              "LONGITUDE" : -97.554655,
              "LATITUDE" : 35.524275
            }
        },
        {
            "type" : "Feature",
            "geometry" : {
              "type" : "Point",
              "coordinates" : [ -97.309244, 37.653962 ]
            },
            "properties" : {
              "ZIP_CO_PSA" : "67211WCHTKSAM2229PA",
              "WIRELESS_SCORE" : 3,
              "LONGITUDE" : -97.309244,
              "LATITUDE" : 37.653962
            }
        },
        {
            "type" : "Feature",
            "geometry" : {
              "type" : "Point",
              "coordinates" : [ -95.979457, 36.1058935 ]
            },
            "properties" : {
              "ZIP_CO_PSA" : "74105TULSOKRI4028LA",
              "WIRELESS_SCORE" : 3,
              "LONGITUDE" : -95.979457,
              "LATITUDE" : 36.1058935
            }
        },
        {
            "type" : "Feature",
            "geometry" : {
              "type" : "Point",
              "coordinates" : [ -90.569006, 38.754045 ]
            },
            "properties" : {
              "ZIP_CO_PSA" : "63376HVTRMO672120PA",
              "WIRELESS_SCORE" : 3,
              "LONGITUDE" : -90.569006,
              "LATITUDE" : 38.754045
            }
        },
        {
            "type" : "Feature",
            "geometry" : {
              "type" : "Point",
              "coordinates" : [ -95.699061, 39.026518 ]
            },
            "properties" : {
              "ZIP_CO_PSA" : "66611TPKAKSJA3119PA",
              "WIRELESS_SCORE" : 3,
              "LONGITUDE" : -95.699061,
              "LATITUDE" : 39.026518
            }
        },
        {
            "type" : "Feature",
            "geometry" : {
              "type" : "Point",
              "coordinates" : [ -90.390947, 38.585437 ]
            },
            "properties" : {
              "ZIP_CO_PSA" : "63122STLSMO412108LA",
              "WIRELESS_SCORE" : 3,
              "LONGITUDE" : -90.390947,
              "LATITUDE" : 38.585437
            }
        },
        {
            "type" : "Feature",
            "geometry" : {
              "type" : "Point",
              "coordinates" : [ -95.996752, 36.004125 ]
            },
            "properties" : {
              "ZIP_CO_PSA" : "74037TULSOKJE3450PA",
              "WIRELESS_SCORE" : 3,
              "LONGITUDE" : -95.996752,
              "LATITUDE" : 36.004125
            }
        },
        {
            "type" : "Feature",
            "geometry" : {
              "type" : "Point",
              "coordinates" : [ -97.430596, 35.4617445 ]
            },
            "properties" : {
              "ZIP_CO_PSA" : "73115OKCYOKOR2238PA",
              "WIRELESS_SCORE" : 3,
              "LONGITUDE" : -97.430596,
              "LATITUDE" : 35.4617445
            }
        },
        {
            "type" : "Feature",
            "geometry" : {
              "type" : "Point",
              "coordinates" : [ -97.469183, 35.705136 ]
            },
            "properties" : {
              "ZIP_CO_PSA" : "73034EDMDOKMA1123PA",
              "WIRELESS_SCORE" : 3,
              "LONGITUDE" : -97.469183,
              "LATITUDE" : 35.705136
            }
        },
        {
            "type" : "Feature",
            "geometry" : {
              "type" : "Point",
              "coordinates" : [ -97.729215, 35.605221 ]
            },
            "properties" : {
              "ZIP_CO_PSA" : "73078PDMTOKMA2101PC",
              "WIRELESS_SCORE" : 3,
              "LONGITUDE" : -97.729215,
              "LATITUDE" : 35.605221
            }
        },
        {
            "type" : "Feature",
            "geometry" : {
              "type" : "Point",
              "coordinates" : [ -94.2114655, 36.223455 ]
            },
            "properties" : {
              "ZIP_CO_PSA" : "72762SPDLARPL4343PB",
              "WIRELESS_SCORE" : 3,
              "LONGITUDE" : -94.2114655,
              "LATITUDE" : 36.223455
            }
        },
        {
            "type" : "Feature",
            "geometry" : {
              "type" : "Point",
              "coordinates" : [ -94.199134, 36.229054 ]
            },
            "properties" : {
              "ZIP_CO_PSA" : "72762SPDLARPL1213PA",
              "WIRELESS_SCORE" : 4,
              "LONGITUDE" : -94.199134,
              "LATITUDE" : 36.229054
            }
        },
        {
            "type" : "Feature",
            "geometry" : {
              "type" : "Point",
              "coordinates" : [ -97.5328, 35.328346 ]
            },
            "properties" : {
              "ZIP_CO_PSA" : "73170OKCYOKPN3115PA",
              "WIRELESS_SCORE" : 4,
              "LONGITUDE" : -97.5328,
              "LATITUDE" : 35.328346
            }
        },
        {
            "type" : "Feature",
            "geometry" : {
              "type" : "Point",
              "coordinates" : [ -97.714485, 35.444545 ]
            },
            "properties" : {
              "ZIP_CO_PSA" : "73099YUKNOKSO2108PA",
              "WIRELESS_SCORE" : 4,
              "LONGITUDE" : -97.714485,
              "LATITUDE" : 35.444545
            }
        },
        {
            "type" : "Feature",
            "geometry" : {
              "type" : "Point",
              "coordinates" : [ -94.345358, 35.314294 ]
            },
            "properties" : {
              "ZIP_CO_PSA" : "72916FTSMARGL3106PC",
              "WIRELESS_SCORE" : 4,
              "LONGITUDE" : -94.345358,
              "LATITUDE" : 35.314294
            }
        },
        {
            "type" : "Feature",
            "geometry" : {
              "type" : "Point",
              "coordinates" : [ -90.36245, 38.58249 ]
            },
            "properties" : {
              "ZIP_CO_PSA" : "63119STLSMO264203LA",
              "WIRELESS_SCORE" : 3,
              "LONGITUDE" : -90.36245,
              "LATITUDE" : 38.58249
            }
        },
        {
            "type" : "Feature",
            "geometry" : {
              "type" : "Point",
              "coordinates" : [ -92.368211, 34.6791055 ]
            },
            "properties" : {
              "ZIP_CO_PSA" : "72209LTRKARLO4128PA",
              "WIRELESS_SCORE" : 3,
              "LONGITUDE" : -92.368211,
              "LATITUDE" : 34.6791055
            }
        },
        {
            "type" : "Feature",
            "geometry" : {
              "type" : "Point",
              "coordinates" : [ -90.3008525, 38.6204795 ]
            },
            "properties" : {
              "ZIP_CO_PSA" : "63139STLSMO062106PA",
              "WIRELESS_SCORE" : 3,
              "LONGITUDE" : -90.3008525,
              "LATITUDE" : 38.6204795
            }
        },
        {
            "type" : "Feature",
            "geometry" : {
              "type" : "Point",
              "coordinates" : [ -94.320872, 38.9413 ]
            },
            "properties" : {
              "ZIP_CO_PSA" : "64086KSCYMO412305PA",
              "WIRELESS_SCORE" : 3,
              "LONGITUDE" : -94.320872,
              "LATITUDE" : 38.9413
            }
        },
        {
            "type" : "Feature",
            "geometry" : {
              "type" : "Point",
              "coordinates" : [ -94.5873555, 39.0264455 ]
            },
            "properties" : {
              "ZIP_CO_PSA" : "64113KSCYMO025205LA",
              "WIRELESS_SCORE" : 3,
              "LONGITUDE" : -94.5873555,
              "LATITUDE" : 39.0264455
            }
        },
        {
            "type" : "Feature",
            "geometry" : {
              "type" : "Point",
              "coordinates" : [ -94.5650165, 39.024314 ]
            },
            "properties" : {
              "ZIP_CO_PSA" : "64110KSCYMO021204PA",
              "WIRELESS_SCORE" : 3,
              "LONGITUDE" : -94.5650165,
              "LATITUDE" : 39.024314
            }
        },
        {
            "type" : "Feature",
            "geometry" : {
              "type" : "Point",
              "coordinates" : [ -94.4071745, 39.0546465 ]
            },
            "properties" : {
              "ZIP_CO_PSA" : "64055KSCYMO223545LA",
              "WIRELESS_SCORE" : 3,
              "LONGITUDE" : -94.4071745,
              "LATITUDE" : 39.0546465
            }
        },
        {
            "type" : "Feature",
            "geometry" : {
              "type" : "Point",
              "coordinates" : [ -95.909532, 36.0058985 ]
            },
            "properties" : {
              "ZIP_CO_PSA" : "74137TULSOKJE2146PA",
              "WIRELESS_SCORE" : 3,
              "LONGITUDE" : -95.909532,
              "LATITUDE" : 36.0058985
            }
        },
        {
            "type" : "Feature",
            "geometry" : {
              "type" : "Point",
              "coordinates" : [ -95.966428, 36.088103 ]
            },
            "properties" : {
              "ZIP_CO_PSA" : "74105TULSOKRI3030PA",
              "WIRELESS_SCORE" : 3,
              "LONGITUDE" : -95.966428,
              "LATITUDE" : 36.088103
            }
        },
        {
            "type" : "Feature",
            "geometry" : {
              "type" : "Point",
              "coordinates" : [ -95.957649, 36.152037 ]
            },
            "properties" : {
              "ZIP_CO_PSA" : "74104TULSOKTB2072PA",
              "WIRELESS_SCORE" : 3,
              "LONGITUDE" : -95.957649,
              "LATITUDE" : 36.152037
            }
        },
        {
            "type" : "Feature",
            "geometry" : {
              "type" : "Point",
              "coordinates" : [ -97.624655, 35.626156 ]
            },
            "properties" : {
              "ZIP_CO_PSA" : "73013EDMDOKMA4136PC",
              "WIRELESS_SCORE" : 3,
              "LONGITUDE" : -97.624655,
              "LATITUDE" : 35.626156
            }
        },
        {
            "type" : "Feature",
            "geometry" : {
              "type" : "Point",
              "coordinates" : [ -97.520334, 35.467051 ]
            },
            "properties" : {
              "ZIP_CO_PSA" : "73102OKCYOKCE4002PB",
              "WIRELESS_SCORE" : 3,
              "LONGITUDE" : -97.520334,
              "LATITUDE" : 35.467051
            }
        },
        {
            "type" : "Feature",
            "geometry" : {
              "type" : "Point",
              "coordinates" : [ -92.290676, 34.780305 ]
            },
            "properties" : {
              "ZIP_CO_PSA" : "72114LTRKARFR1183PA",
              "WIRELESS_SCORE" : 3,
              "LONGITUDE" : -92.290676,
              "LATITUDE" : 34.780305
            }
        },
        {
            "type" : "Feature",
            "geometry" : {
              "type" : "Point",
              "coordinates" : [ -92.400322, 35.099053 ]
            },
            "properties" : {
              "ZIP_CO_PSA" : "72032CNWYARMA2149PA",
              "WIRELESS_SCORE" : 3,
              "LONGITUDE" : -92.400322,
              "LATITUDE" : 35.099053
            }
        },
        {
            "type" : "Feature",
            "geometry" : {
              "type" : "Point",
              "coordinates" : [ -90.289536, 38.571277 ]
            },
            "properties" : {
              "ZIP_CO_PSA" : "63109STLSMO034109LB",
              "WIRELESS_SCORE" : 3,
              "LONGITUDE" : -90.289536,
              "LATITUDE" : 38.571277
            }
        },
        {
            "type" : "Feature",
            "geometry" : {
              "type" : "Point",
              "coordinates" : [ -96.5542655, 39.2093925 ]
            },
            "properties" : {
              "ZIP_CO_PSA" : "66502MNHTKSFA2237PA",
              "WIRELESS_SCORE" : 4,
              "LONGITUDE" : -96.5542655,
              "LATITUDE" : 39.2093925
            }
        },
        {
            "type" : "Feature",
            "geometry" : {
              "type" : "Point",
              "coordinates" : [ -90.3094925, 38.620304 ]
            },
            "properties" : {
              "ZIP_CO_PSA" : "63143STLSMO062202LA",
              "WIRELESS_SCORE" : 3,
              "LONGITUDE" : -90.3094925,
              "LATITUDE" : 38.620304
            }
        },
        {
            "type" : "Feature",
            "geometry" : {
              "type" : "Point",
              "coordinates" : [ -94.3028, 35.3263 ]
            },
            "properties" : {
              "ZIP_CO_PSA" : "72923FTSMARGL2128PA",
              "WIRELESS_SCORE" : 3,
              "LONGITUDE" : -94.3028,
              "LATITUDE" : 35.3263
            }
        },
        {
            "type" : "Feature",
            "geometry" : {
              "type" : "Point",
              "coordinates" : [ -94.735338, 38.885443 ]
            },