{
    "type" : "FeatureCollection",
    "name" : "Sheet1",
    "features" : [
        {
            "type" : "Feature",
            "geometry" : {
              "type" : "Point",
              "coordinates" : [ -80.369748, 27.340822 ]
            },
            "properties" : {
              "ZIP_CO_PSA" : "34983PTSLFLMA1204PA",
              "WIRELESS_SCORE" : 3,
              "LONGITUDE" : -80.369748,
              "LATITUDE" : 27.340822
            }
        },
        {
            "type" : "Feature",
            "geometry" : {
              "type" : "Point",
              "coordinates" : [ -80.2151195, 26.669633 ]
            },
            "properties" : {
              "ZIP_CO_PSA" : "33414WPBHFLRP2111PF",
              "WIRELESS_SCORE" : 4,
              "LONGITUDE" : -80.2151195,
              "LATITUDE" : 26.669633
            }
        },
        {
            "type" : "Feature",
            "geometry" : {
              "type" : "Point",
              "coordinates" : [ -80.216865, 26.378893 ]
            },
            "properties" : {
              "ZIP_CO_PSA" : "33498BCRTFLSA1106PA",
              "WIRELESS_SCORE" : 3,
              "LONGITUDE" : -80.216865,
              "LATITUDE" : 26.378893
            }
        },
        {
            "type" : "Feature",
            "geometry" : {
              "type" : "Point",
              "coordinates" : [ -82.52697, 28.43821 ]
            },
            "properties" : {
              "ZIP_CO_PSA" : "34609BKVLFLJF3762PA",
              "WIRELESS_SCORE" : 2,
              "LONGITUDE" : -82.52697,
              "LATITUDE" : 28.43821
            }
        },
        {
            "type" : "Feature",
            "geometry" : {
              "type" : "Point",
              "coordinates" : [ -80.137341, 26.862892 ]
            },
            "properties" : {
              "ZIP_CO_PSA" : "33418WPBHFLGR5202PD",
              "WIRELESS_SCORE" : 2,
              "LONGITUDE" : -80.137341,
              "LATITUDE" : 26.862892
            }
        },
        {
            "type" : "Feature",
            "geometry" : {
              "type" : "Point",
              "coordinates" : [ -80.0992145, 26.893159 ]
            },
            "properties" : {
              "ZIP_CO_PSA" : "33458WPBHFLGR1305PA",
              "WIRELESS_SCORE" : 2,
              "LONGITUDE" : -80.0992145,
              "LATITUDE" : 26.893159
            }
        },
        {
            "type" : "Feature",
            "geometry" : {
              "type" : "Point",
              "coordinates" : [ -80.200741, 25.887836 ]
            },
            "properties" : {
              "ZIP_CO_PSA" : "33168MIAMFLSH1111PA",
              "WIRELESS_SCORE" : 3,
              "LONGITUDE" : -80.200741,
              "LATITUDE" : 25.887836
            }
        },
        {
            "type" : "Feature",
            "geometry" : {
              "type" : "Point",
              "coordinates" : [ -81.470682, 28.562489 ]
            },
            "properties" : {
              "ZIP_CO_PSA" : "32818ORLDFLPH4140PD",
              "WIRELESS_SCORE" : 4,
              "LONGITUDE" : -81.470682,
              "LATITUDE" : 28.562489
            }
        },
        {
            "type" : "Feature",
            "geometry" : {
              "type" : "Point",
              "coordinates" : [ -81.269867, 28.386059 ]
            },
            "properties" : {
              "ZIP_CO_PSA" : "32827ORLDFLPC2485PA",
              "WIRELESS_SCORE" : 4,
              "LONGITUDE" : -81.269867,
              "LATITUDE" : 28.386059
            }
        },
        {
            "type" : "Feature",
            "geometry" : {
              "type" : "Point",
              "coordinates" : [ -80.231124, 26.611809 ]
            },
            "properties" : {
              "ZIP_CO_PSA" : "33449WPBHFLRP3122PC",
              "WIRELESS_SCORE" : 4,
              "LONGITUDE" : -80.231124,
              "LATITUDE" : 26.611809
            }
        },
        {
            "type" : "Feature",
            "geometry" : {
              "type" : "Point",
              "coordinates" : [ -80.280849, 27.1328155 ]
            },
            "properties" : {
              "ZIP_CO_PSA" : "34990STRTFLMA7419PA",
              "WIRELESS_SCORE" : 3,
              "LONGITUDE" : -80.280849,
              "LATITUDE" : 27.1328155
            }
        },
        {
            "type" : "Feature",
            "geometry" : {
              "type" : "Point",
              "coordinates" : [ -81.386409, 28.562454 ]
            },
            "properties" : {
              "ZIP_CO_PSA" : "32804ORLDFLMA1301PA",
              "WIRELESS_SCORE" : 4,
              "LONGITUDE" : -81.386409,
              "LATITUDE" : 28.562454
            }
        },
        {
            "type" : "Feature",
            "geometry" : {
              "type" : "Point",
              "coordinates" : [ -80.157229, 26.4432 ]
            },
            "properties" : {
              "ZIP_CO_PSA" : "33446DLBHFLKP4104PA",
              "WIRELESS_SCORE" : 3,
              "LONGITUDE" : -80.157229,
              "LATITUDE" : 26.4432
            }
        },
        {
            "type" : "Feature",
            "geometry" : {
              "type" : "Point",
              "coordinates" : [ -80.180057, 26.435786 ]
            },
            "properties" : {
              "ZIP_CO_PSA" : "33446DLBHFLKP4304PA",
              "WIRELESS_SCORE" : 2,
              "LONGITUDE" : -80.180057,
              "LATITUDE" : 26.435786
            }
        },
        {
            "type" : "Feature",
            "geometry" : {
              "type" : "Point",
              "coordinates" : [ -80.640882, 28.008722 ]
            },
            "properties" : {
              "ZIP_CO_PSA" : "32907MLBRFLMA3160PA",
              "WIRELESS_SCORE" : 4,
              "LONGITUDE" : -80.640882,
              "LATITUDE" : 28.008722
            }
        },
        {
            "type" : "Feature",
            "geometry" : {
              "type" : "Point",
              "coordinates" : [ -80.207703, 26.378888 ]
            },
            "properties" : {
              "ZIP_CO_PSA" : "33498BCRTFLSA1102LA",
              "WIRELESS_SCORE" : 4,
              "LONGITUDE" : -80.207703,
              "LATITUDE" : 26.378888
            }
        },
        {
            "type" : "Feature",
            "geometry" : {
              "type" : "Point",
              "coordinates" : [ -81.506449, 29.9778765 ]
            },
            "properties" : {
              "ZIP_CO_PSA" : "32092STAGFLWG4106ZV",
              "WIRELESS_SCORE" : 2,
              "LONGITUDE" : -81.506449,
              "LATITUDE" : 29.9778765
            }
        },
        {
            "type" : "Feature",
            "geometry" : {
              "type" : "Point",
              "coordinates" : [ -80.169582, 26.5760575 ]
            },
            "properties" : {
              "ZIP_CO_PSA" : "33467WPBHFLGA3204PG",
              "WIRELESS_SCORE" : 2,
              "LONGITUDE" : -80.169582,
              "LATITUDE" : 26.5760575
            }
        },
        {
            "type" : "Feature",
            "geometry" : {
              "type" : "Point",
              "coordinates" : [ -81.0520045, 29.308742 ]
            },
            "properties" : {
              "ZIP_CO_PSA" : "32176DYBHFLOS2106PA",
              "WIRELESS_SCORE" : 4,
              "LONGITUDE" : -81.0520045,
              "LATITUDE" : 29.308742
            }
        },
        {
            "type" : "Feature",
            "geometry" : {
              "type" : "Point",
              "coordinates" : [ -80.167127, 26.505663 ]
            },
            "properties" : {
              "ZIP_CO_PSA" : "33437BYBHFLMA4603PA",
              "WIRELESS_SCORE" : 2,
              "LONGITUDE" : -80.167127,
              "LATITUDE" : 26.505663
            }
        },
        {
            "type" : "Feature",
            "geometry" : {
              "type" : "Point",
              "coordinates" : [ -80.151034, 26.582025 ]
            },
            "properties" : {
              "ZIP_CO_PSA" : "33467WPBHFLGA3203PB",
              "WIRELESS_SCORE" : 4,
              "LONGITUDE" : -80.151034,
              "LATITUDE" : 26.582025
            }
        },
        {
            "type" : "Feature",
            "geometry" : {
              "type" : "Point",
              "coordinates" : [ -81.1830805, 28.534901 ]
            },
            "properties" : {
              "ZIP_CO_PSA" : "32828ORLDFLAP2212PG",
              "WIRELESS_SCORE" : 3,
              "LONGITUDE" : -81.1830805,
              "LATITUDE" : 28.534901
            }
        },
        {
            "type" : "Feature",
            "geometry" : {
              "type" : "Point",
              "coordinates" : [ -80.3785185, 27.621833 ]
            },
            "properties" : {
              "ZIP_CO_PSA" : "32960VRBHFLMA3110PA",
              "WIRELESS_SCORE" : 4,
              "LONGITUDE" : -80.3785185,
              "LATITUDE" : 27.621833
            }
        },
        {
            "type" : "Feature",
            "geometry" : {
              "type" : "Point",
              "coordinates" : [ -80.691362, 28.002903 ]
            },
            "properties" : {
              "ZIP_CO_PSA" : "32907MLBRFLMA3137PE",
              "WIRELESS_SCORE" : 2,
              "LONGITUDE" : -80.691362,
              "LATITUDE" : 28.002903
            }
        },
        {
            "type" : "Feature",
            "geometry" : {
              "type" : "Point",
              "coordinates" : [ -80.138871, 25.96937 ]
            },
            "properties" : {
              "ZIP_CO_PSA" : "33180NDADFLOL1107PC",
              "WIRELESS_SCORE" : 4,
              "LONGITUDE" : -80.138871,
              "LATITUDE" : 25.96937
            }
        },
        {
            "type" : "Feature",
            "geometry" : {
              "type" : "Point",
              "coordinates" : [ -80.125385, 26.62408 ]
            },
            "properties" : {
              "ZIP_CO_PSA" : "33463WPBHFLGA4101PC",
              "WIRELESS_SCORE" : 4,
              "LONGITUDE" : -80.125385,
              "LATITUDE" : 26.62408
            }
        },
        {
            "type" : "Feature",
            "geometry" : {
              "type" : "Point",
              "coordinates" : [ -80.304999, 25.982677 ]
            },
            "properties" : {
              "ZIP_CO_PSA" : "33025HLWDFLPE4220PB",
              "WIRELESS_SCORE" : 4,
              "LONGITUDE" : -80.304999,
              "LATITUDE" : 25.982677
            }
        },
        {
            "type" : "Feature",
            "geometry" : {
              "type" : "Point",
              "coordinates" : [ -80.180369, 26.561583 ]
            },
            "properties" : {
              "ZIP_CO_PSA" : "33467WPBHFLGA4306PC",
              "WIRELESS_SCORE" : 4,
              "LONGITUDE" : -80.180369,
              "LATITUDE" : 26.561583
            }
        },
        {
            "type" : "Feature",
            "geometry" : {
              "type" : "Point",
              "coordinates" : [ -80.141713, 26.449561 ]
            },
            "properties" : {
              "ZIP_CO_PSA" : "33484DLBHFLKP3102PA",
              "WIRELESS_SCORE" : 5,
              "LONGITUDE" : -80.141713,
              "LATITUDE" : 26.449561
            }
        },
        {
            "type" : "Feature",
            "geometry" : {
              "type" : "Point",
              "coordinates" : [ -80.100261, 26.873553 ]
            },
            "properties" : {
              "ZIP_CO_PSA" : "33410WPBHFLGR1203PA",
              "WIRELESS_SCORE" : 5,
              "LONGITUDE" : -80.100261,
              "LATITUDE" : 26.873553
            }
        },
        {
            "type" : "Feature",
            "geometry" : {
              "type" : "Point",
              "coordinates" : [ -80.377978, 27.304963 ]
            },
            "properties" : {
              "ZIP_CO_PSA" : "34986PTSLFLMA5201PA",
              "WIRELESS_SCORE" : 4,
              "LONGITUDE" : -80.377978,
              "LATITUDE" : 27.304963
            }
        },
        {
            "type" : "Feature",
            "geometry" : {
              "type" : "Point",
              "coordinates" : [ -80.390662, 27.334227 ]
            },
            "properties" : {
              "ZIP_CO_PSA" : "34986PTSLFLMA5206PA",
              "WIRELESS_SCORE" : 4,
              "LONGITUDE" : -80.390662,
              "LATITUDE" : 27.334227
            }
        },
        {
            "type" : "Feature",
            "geometry" : {
              "type" : "Point",
              "coordinates" : [ -80.182698, 26.55515 ]
            },
            "properties" : {
              "ZIP_CO_PSA" : "33472BYBHFLMA4701PA",
              "WIRELESS_SCORE" : 4,
              "LONGITUDE" : -80.182698,
              "LATITUDE" : 26.55515
            }
        },
        {
            "type" : "Feature",
            "geometry" : {
              "type" : "Point",
              "coordinates" : [ -80.200757, 26.585969 ]
            },
            "properties" : {
              "ZIP_CO_PSA" : "33467WPBHFLGA4306PA",
              "WIRELESS_SCORE" : 5,
              "LONGITUDE" : -80.200757,
              "LATITUDE" : 26.585969
            }
        },
        {
            "type" : "Feature",
            "geometry" : {
              "type" : "Point",
              "coordinates" : [ -80.127023, 26.501949 ]
            },
            "properties" : {
              "ZIP_CO_PSA" : "33437BYBHFLMA4512PA",
              "WIRELESS_SCORE" : 4,
              "LONGITUDE" : -80.127023,
              "LATITUDE" : 26.501949
            }
        },
        {
            "type" : "Feature",
            "geometry" : {
              "type" : "Point",
              "coordinates" : [ -81.260635, 28.981902 ]
            },
            "properties" : {
              "ZIP_CO_PSA" : "32724DELDFLMA3130PB",
              "WIRELESS_SCORE" : 3,
              "LONGITUDE" : -81.260635,
              "LATITUDE" : 28.981902
            }
        },
        {
            "type" : "Feature",
            "geometry" : {
              "type" : "Point",
              "coordinates" : [ -82.484423, 28.496388 ]
            },
            "properties" : {
              "ZIP_CO_PSA" : "34609BKVLFLJF3720PB",
              "WIRELESS_SCORE" : 5,
              "LONGITUDE" : -82.484423,
              "LATITUDE" : 28.496388
            }
        },
        {
            "type" : "Feature",
            "geometry" : {
              "type" : "Point",
              "coordinates" : [ -81.050025, 29.103078 ]
            },
            "properties" : {
              "ZIP_CO_PSA" : "32128DYBHFLPO4318PA",
              "WIRELESS_SCORE" : 4,
              "LONGITUDE" : -81.050025,
              "LATITUDE" : 29.103078
            }
        },
        {
            "type" : "Feature",
            "geometry" : {
              "type" : "Point",
              "coordinates" : [ -80.156916, 26.516242 ]
            },
            "properties" : {
              "ZIP_CO_PSA" : "33437BYBHFLMA4602PI",
              "WIRELESS_SCORE" : 3,
              "LONGITUDE" : -80.156916,
              "LATITUDE" : 26.516242
            }
        },
        {
            "type" : "Feature",
            "geometry" : {
              "type" : "Point",
              "coordinates" : [ -80.178501, 26.6392 ]
            },
            "properties" : {
              "ZIP_CO_PSA" : "33414WPBHFLGA1213PB",
              "WIRELESS_SCORE" : 4,
              "LONGITUDE" : -80.178501,
              "LATITUDE" : 26.6392
            }
        },
        {
            "type" : "Feature",
            "geometry" : {
              "type" : "Point",
              "coordinates" : [ -80.372111, 27.361093 ]
            },
            "properties" : {
              "ZIP_CO_PSA" : "34983PTSLFLMA1212PA",
              "WIRELESS_SCORE" : 3,
              "LONGITUDE" : -80.372111,
              "LATITUDE" : 27.361093
            }
        },
        {
            "type" : "Feature",
            "geometry" : {
              "type" : "Point",
              "coordinates" : [ -80.176288, 26.396388 ]
            },
            "properties" : {
              "ZIP_CO_PSA" : "33496BCRTFLSA2118LC",
              "WIRELESS_SCORE" : 4,
              "LONGITUDE" : -80.176288,
              "LATITUDE" : 26.396388
            }
        },
        {
            "type" : "Feature",
            "geometry" : {
              "type" : "Point",
              "coordinates" : [ -80.176054, 26.55394 ]
            },
            "properties" : {
              "ZIP_CO_PSA" : "33472BYBHFLMA4701PB",
              "WIRELESS_SCORE" : 5,
              "LONGITUDE" : -80.176054,
              "LATITUDE" : 26.55394
            }
        },
        {
            "type" : "Feature",
            "geometry" : {
              "type" : "Point",
              "coordinates" : [ -80.167534, 26.42928 ]
            },
            "properties" : {
              "ZIP_CO_PSA" : "33446DLBHFLKP3103PC",
              "WIRELESS_SCORE" : 4,
              "LONGITUDE" : -80.167534,
              "LATITUDE" : 26.42928
            }
        },
        {
            "type" : "Feature",
            "geometry" : {
              "type" : "Point",
              "coordinates" : [ -80.149554, 26.054951 ]
            },
            "properties" : {
              "ZIP_CO_PSA" : "33004HLWDFLMA1403PB",
              "WIRELESS_SCORE" : 5,
              "LONGITUDE" : -80.149554,
              "LATITUDE" : 26.054951
            }
        },
        {
            "type" : "Feature",
            "geometry" : {
              "type" : "Point",
              "coordinates" : [ -80.1547175, 26.5414185 ]
            },
            "properties" : {
              "ZIP_CO_PSA" : "33472BYBHFLMA4601PD",
              "WIRELESS_SCORE" : 3,
              "LONGITUDE" : -80.1547175,
              "LATITUDE" : 26.5414185
            }
        },
        {
            "type" : "Feature",
            "geometry" : {
              "type" : "Point",
              "coordinates" : [ -80.215584, 26.359143 ]
            },
            "properties" : {
              "ZIP_CO_PSA" : "33428BCRTFLSA3102LA",
              "WIRELESS_SCORE" : 3,
              "LONGITUDE" : -80.215584,
              "LATITUDE" : 26.359143
            }
        },
        {
            "type" : "Feature",
            "geometry" : {
              "type" : "Point",
              "coordinates" : [ -80.240899, 27.143038 ]
            },
            "properties" : {
              "ZIP_CO_PSA" : "34997STRTFLMA7213PA",
              "WIRELESS_SCORE" : 4,
              "LONGITUDE" : -80.240899,
              "LATITUDE" : 27.143038
            }
        },
        {
            "type" : "Feature",
            "geometry" : {
              "type" : "Point",
              "coordinates" : [ -81.049981, 29.10874 ]
            },
            "properties" : {
              "ZIP_CO_PSA" : "32128DYBHFLPO4401PB",
              "WIRELESS_SCORE" : 4,
              "LONGITUDE" : -81.049981,
              "LATITUDE" : 29.10874
            }
        },
        {
            "type" : "Feature",
            "geometry" : {
              "type" : "Point",
              "coordinates" : [ -80.214354, 26.396882 ]
            },
            "properties" : {
              "ZIP_CO_PSA" : "33498BCRTFLSA1211LD",
              "WIRELESS_SCORE" : 4,
              "LONGITUDE" : -80.214354,
              "LATITUDE" : 26.396882
            }
        },
        {
            "type" : "Feature",
            "geometry" : {
              "type" : "Point",
              "coordinates" : [ -80.204996, 26.802946 ]
            },
            "properties" : {
              "ZIP_CO_PSA" : "33412WPBHFLGR4405PC",
              "WIRELESS_SCORE" : 4,
              "LONGITUDE" : -80.204996,
              "LATITUDE" : 26.802946
            }
        },
        {
            "type" : "Feature",
            "geometry" : {
              "type" : "Point",
              "coordinates" : [ -80.063497, 26.541644 ]
            },
            "properties" : {
              "ZIP_CO_PSA" : "33435BYBHFLMA1203PA",
              "WIRELESS_SCORE" : 4,
              "LONGITUDE" : -80.063497,
              "LATITUDE" : 26.541644
            }
        },
        {
            "type" : "Feature",
            "geometry" : {
              "type" : "Point",
              "coordinates" : [ -80.352711, 26.020648 ]
            },
            "properties" : {
              "ZIP_CO_PSA" : "33028HLWDFLPE4213PB",
              "WIRELESS_SCORE" : 4,
              "LONGITUDE" : -80.352711,
              "LATITUDE" : 26.020648
            }
        },
        {
            "type" : "Feature",
            "geometry" : {
              "type" : "Point",
              "coordinates" : [ -80.237701, 26.7089485 ]
            },
            "properties" : {
              "ZIP_CO_PSA" : "33411WPBHFLRP1138PA",
              "WIRELESS_SCORE" : 3,
              "LONGITUDE" : -80.237701,
              "LATITUDE" : 26.7089485
            }
        },
        {
            "type" : "Feature",
            "geometry" : {
              "type" : "Point",
              "coordinates" : [ -81.269045, 28.888869 ]
            },
            "properties" : {
              "ZIP_CO_PSA" : "32725DBRYFLDL1315PA",
              "WIRELESS_SCORE" : 5,
              "LONGITUDE" : -81.269045,
              "LATITUDE" : 28.888869
            }
        },
        {
            "type" : "Feature",
            "geometry" : {
              "type" : "Point",
              "coordinates" : [ -80.343079, 26.002742 ]
            },
            "properties" : {
              "ZIP_CO_PSA" : "33027HLWDFLPE4204PG",
              "WIRELESS_SCORE" : 4,
              "LONGITUDE" : -80.343079,
              "LATITUDE" : 26.002742
            }
        },
        {
            "type" : "Feature",
            "geometry" : {
              "type" : "Point",
              "coordinates" : [ -80.294762, 27.3194965 ]
            },
            "properties" : {
              "ZIP_CO_PSA" : "34952PTSLFLMA2210PA",
              "WIRELESS_SCORE" : 3,
              "LONGITUDE" : -80.294762,
              "LATITUDE" : 27.3194965
            }
        },
        {
            "type" : "Feature",
            "geometry" : {
              "type" : "Point",
              "coordinates" : [ -80.193747, 26.6528935 ]
            },
            "properties" : {
              "ZIP_CO_PSA" : "33411WPBHFLRP2125PC",
              "WIRELESS_SCORE" : 3,
              "LONGITUDE" : -80.193747,
              "LATITUDE" : 26.6528935
            }
        },
        {
            "type" : "Feature",
            "geometry" : {
              "type" : "Point",
              "coordinates" : [ -80.2760025, 25.958758 ]
            },
            "properties" : {
              "ZIP_CO_PSA" : "33055NDADFLBR4222PA",
              "WIRELESS_SCORE" : 4,
              "LONGITUDE" : -80.2760025,
              "LATITUDE" : 25.958758
            }
        },
        {
            "type" : "Feature",
            "geometry" : {
              "type" : "Point",
              "coordinates" : [ -80.6085235, 28.1889215 ]
            },
            "properties" : {
              "ZIP_CO_PSA" : "32937EGLLFLIH1130PA",
              "WIRELESS_SCORE" : 4,
              "LONGITUDE" : -80.6085235,
              "LATITUDE" : 28.1889215
            }
        },
        {
            "type" : "Feature",
            "geometry" : {
              "type" : "Point",
              "coordinates" : [ -81.342949, 29.885725 ]
            },
            "properties" : {
              "ZIP_CO_PSA" : "32084STAGFLMA4111PC",
              "WIRELESS_SCORE" : 4,
              "LONGITUDE" : -81.342949,
              "LATITUDE" : 29.885725
            }
        },
        {
            "type" : "Feature",
            "geometry" : {
              "type" : "Point",
              "coordinates" : [ -80.211839, 26.625523 ]
            },
            "properties" : {
              "ZIP_CO_PSA" : "33449WPBHFLRP2121PF",
              "WIRELESS_SCORE" : 3,
              "LONGITUDE" : -80.211839,
              "LATITUDE" : 26.625523
            }
        },
        {
            "type" : "Feature",
            "geometry" : {
              "type" : "Point",
              "coordinates" : [ -80.086861, 26.863856 ]
            },
            "properties" : {
              "ZIP_CO_PSA" : "33410WPBHFLGR1206PB",
              "WIRELESS_SCORE" : 3,
              "LONGITUDE" : -80.086861,
              "LATITUDE" : 26.863856
            }
        },
        {
            "type" : "Feature",
            "geometry" : {
              "type" : "Point",
              "coordinates" : [ -80.385448, 26.108172 ]
            },
            "properties" : {
              "ZIP_CO_PSA" : "33326FTLDFLWN1101PA",
              "WIRELESS_SCORE" : 4,
              "LONGITUDE" : -80.385448,
              "LATITUDE" : 26.108172
            }
        },
        {
            "type" : "Feature",
            "geometry" : {
              "type" : "Point",
              "coordinates" : [ -81.494809, 28.595232 ]
            },
            "properties" : {
              "ZIP_CO_PSA" : "32818ORLDFLPH4330PD",
              "WIRELESS_SCORE" : 4,
              "LONGITUDE" : -81.494809,
              "LATITUDE" : 28.595232
            }
        },
        {
            "type" : "Feature",
            "geometry" : {
              "type" : "Point",
              "coordinates" : [ -80.133048, 26.578238 ]
            },
            "properties" : {
              "ZIP_CO_PSA" : "33463WPBHFLGA3203PC",
              "WIRELESS_SCORE" : 2,
              "LONGITUDE" : -80.133048,
              "LATITUDE" : 26.578238
            }
        },
        {
            "type" : "Feature",
            "geometry" : {
              "type" : "Point",
              "coordinates" : [ -80.224532, 26.396631 ]
            },
            "properties" : {
              "ZIP_CO_PSA" : "33498BCRTFLSA1211LC",
              "WIRELESS_SCORE" : 4,
              "LONGITUDE" : -80.224532,
              "LATITUDE" : 26.396631
            }
        },
        {
            "type" : "Feature",
            "geometry" : {
              "type" : "Point",
              "coordinates" : [ -80.199263, 26.457969 ]
            },
            "properties" : {
              "ZIP_CO_PSA" : "33446DLBHFLKP4403PA",
              "WIRELESS_SCORE" : 4,
              "LONGITUDE" : -80.199263,
              "LATITUDE" : 26.457969
            }
        },
        {
            "type" : "Feature",
            "geometry" : {
              "type" : "Point",
              "coordinates" : [ -80.262039, 26.142239 ]
            },
            "properties" : {
              "ZIP_CO_PSA" : "33322FTLDFLJA2107PA",
              "WIRELESS_SCORE" : 4,
              "LONGITUDE" : -80.262039,
              "LATITUDE" : 26.142239
            }
        },
        {
            "type" : "Feature",
            "geometry" : {
              "type" : "Point",
              "coordinates" : [ -80.6942365, 28.376624 ]
            },
            "properties" : {
              "ZIP_CO_PSA" : "32953COCOFLME3402PA",
              "WIRELESS_SCORE" : 5,
              "LONGITUDE" : -80.6942365,
              "LATITUDE" : 28.376624
            }
        },
        {
            "type" : "Feature",
            "geometry" : {
              "type" : "Point",
              "coordinates" : [ -83.980706, 30.8241675 ]
            },
            "properties" : {
              "ZIP_CO_PSA" : "31792THVLGAMA3105PB",
              "WIRELESS_SCORE" : 3,
              "LONGITUDE" : -83.980706,
              "LATITUDE" : 30.8241675
            }
        },
        {
            "type" : "Feature",
            "geometry" : {
              "type" : "Point",
              "coordinates" : [ -80.422663, 26.0110915 ]
            },
            "properties" : {
              "ZIP_CO_PSA" : "33029HLWDFLPE4205LH",
              "WIRELESS_SCORE" : 4,
              "LONGITUDE" : -80.422663,
              "LATITUDE" : 26.0110915
            }
        },
        {
            "type" : "Feature",
            "geometry" : {
              "type" : "Point",
              "coordinates" : [ -85.652072, 30.163424 ]
            },
            "properties" : {
              "ZIP_CO_PSA" : "32401PNCYFLMA1115PA",
              "WIRELESS_SCORE" : 4,
              "LONGITUDE" : -85.652072,
              "LATITUDE" : 30.163424
            }
        },
        {
            "type" : "Feature",
            "geometry" : {
              "type" : "Point",
              "coordinates" : [ -80.599166, 28.1784575 ]
            },
            "properties" : {
              "ZIP_CO_PSA" : "32937EGLLFLIH1120PB",
              "WIRELESS_SCORE" : 4,
              "LONGITUDE" : -80.599166,
              "LATITUDE" : 28.1784575
            }
        },
        {
            "type" : "Feature",
            "geometry" : {
              "type" : "Point",
              "coordinates" : [ -81.241559, 29.515206 ]
            },
            "properties" : {
              "ZIP_CO_PSA" : "32164BNNLFLMA1140PB",
              "WIRELESS_SCORE" : 3,
              "LONGITUDE" : -81.241559,
              "LATITUDE" : 29.515206
            }
        },
        {
            "type" : "Feature",
            "geometry" : {
              "type" : "Point",
              "coordinates" : [ -80.215421, 26.4131465 ]
            },
            "properties" : {
              "ZIP_CO_PSA" : "33498BCRTFLSA1205LA",
              "WIRELESS_SCORE" : 3,
              "LONGITUDE" : -80.215421,
              "LATITUDE" : 26.4131465
            }
        },
        {
            "type" : "Feature",
            "geometry" : {
              "type" : "Point",
              "coordinates" : [ -80.338389, 25.764078 ]
            },
            "properties" : {
              "ZIP_CO_PSA" : "33174MIAMFLCA2402PB",
              "WIRELESS_SCORE" : 4,
              "LONGITUDE" : -80.338389,
              "LATITUDE" : 25.764078
            }
        },
        {
            "type" : "Feature",
            "geometry" : {
              "type" : "Point",
              "coordinates" : [ -81.507373, 30.042909 ]
            },
            "properties" : {
              "ZIP_CO_PSA" : "32092STAGFLMA1186PG",
              "WIRELESS_SCORE" : 2,
              "LONGITUDE" : -81.507373,
              "LATITUDE" : 30.042909
            }
        },
        {
            "type" : "Feature",
            "geometry" : {
              "type" : "Point",
              "coordinates" : [ -80.433051, 25.488825 ]
            },
            "properties" : {
              "ZIP_CO_PSA" : "33033HMSTFLHM2417PC",
              "WIRELESS_SCORE" : 2,
              "LONGITUDE" : -80.433051,
              "LATITUDE" : 25.488825
            }
        },
        {
            "type" : "Feature",
            "geometry" : {
              "type" : "Point",
              "coordinates" : [ -80.202907, 26.778057 ]
            },
            "properties" : {
              "ZIP_CO_PSA" : "33412WPBHFLGR4405PF",
              "WIRELESS_SCORE" : 4,
              "LONGITUDE" : -80.202907,
              "LATITUDE" : 26.778057
            }
        },
        {
            "type" : "Feature",
            "geometry" : {
              "type" : "Point",
              "coordinates" : [ -80.7363955, 28.311459 ]
            },
            "properties" : {
              "ZIP_CO_PSA" : "32955COCOFLMA4110PA",
              "WIRELESS_SCORE" : 3,
              "LONGITUDE" : -80.7363955,
              "LATITUDE" : 28.311459
            }
        },
        {
            "type" : "Feature",
            "geometry" : {
              "type" : "Point",
              "coordinates" : [ -81.059951, 29.322469 ]
            },
            "properties" : {
              "ZIP_CO_PSA" : "32176DYBHFLOS2104PB",
              "WIRELESS_SCORE" : 5,
              "LONGITUDE" : -81.059951,
              "LATITUDE" : 29.322469
            }
        },
        {
            "type" : "Feature",
            "geometry" : {
              "type" : "Point",
              "coordinates" : [ -80.18266, 26.640046 ]
            },
            "properties" : {
              "ZIP_CO_PSA" : "33414WPBHFLGA1213PA",
              "WIRELESS_SCORE" : 4,
              "LONGITUDE" : -80.18266,
              "LATITUDE" : 26.640046
            }
        },
        {
            "type" : "Feature",
            "geometry" : {
              "type" : "Point",
              "coordinates" : [ -80.188474, 26.7121785 ]
            },
            "properties" : {
              "ZIP_CO_PSA" : "33411WPBHFLRP1205PB",
              "WIRELESS_SCORE" : 3,
              "LONGITUDE" : -80.188474,
              "LATITUDE" : 26.7121785
            }
        },
        {
            "type" : "Feature",
            "geometry" : {
              "type" : "Point",
              "coordinates" : [ -80.116684, 26.902674 ]
            },
            "properties" : {
              "ZIP_CO_PSA" : "33458WPBHFLGR1999PA",
              "WIRELESS_SCORE" : 3,
              "LONGITUDE" : -80.116684,
              "LATITUDE" : 26.902674
            }
        },
        {
            "type" : "Feature",
            "geometry" : {
              "type" : "Point",
              "coordinates" : [ -80.1772135, 26.7153075 ]
            },
            "properties" : {
              "ZIP_CO_PSA" : "33411WPBHFLRP1238PB",
              "WIRELESS_SCORE" : 3,
              "LONGITUDE" : -80.1772135,
              "LATITUDE" : 26.7153075
            }
        },
        {
            "type" : "Feature",
            "geometry" : {
              "type" : "Point",
              "coordinates" : [ -80.273508, 26.312312 ]
            },
            "properties" : {
              "ZIP_CO_PSA" : "33076PMBHFLCS1806PB",
              "WIRELESS_SCORE" : 4,
              "LONGITUDE" : -80.273508,
              "LATITUDE" : 26.312312
            }
        },
        {
            "type" : "Feature",
            "geometry" : {
              "type" : "Point",
              "coordinates" : [ -80.237784, 26.0279465 ]
            },
            "properties" : {
              "ZIP_CO_PSA" : "33024HLWDFLWH5407PA",
              "WIRELESS_SCORE" : 4,
              "LONGITUDE" : -80.237784,
              "LATITUDE" : 26.0279465
            }
        },
        {
            "type" : "Feature",
            "geometry" : {
              "type" : "Point",
              "coordinates" : [ -80.186585, 25.9519725 ]
            },
            "properties" : {
              "ZIP_CO_PSA" : "33179NDADFLGG1102PA",
              "WIRELESS_SCORE" : 5,
              "LONGITUDE" : -80.186585,
              "LATITUDE" : 25.9519725
            }
        },
        {
            "type" : "Feature",
            "geometry" : {
              "type" : "Point",
              "coordinates" : [ -80.407887, 27.297009 ]
            },
            "properties" : {
              "ZIP_CO_PSA" : "34986PTSLFLMA5211PA",
              "WIRELESS_SCORE" : 4,
              "LONGITUDE" : -80.407887,
              "LATITUDE" : 27.297009
            }
        },
        {
            "type" : "Feature",
            "geometry" : {
              "type" : "Point",
              "coordinates" : [ -80.165827, 26.459068 ]
            },
            "properties" : {
              "ZIP_CO_PSA" : "33446DLBHFLKP4207PA",
              "WIRELESS_SCORE" : 5,
              "LONGITUDE" : -80.165827,
              "LATITUDE" : 26.459068
            }
        },
        {
            "type" : "Feature",
            "geometry" : {
              "type" : "Point",
              "coordinates" : [ -80.126202, 26.220829 ]
            },
            "properties" : {
              "ZIP_CO_PSA" : "33060PMBHFLFE3411PB",
              "WIRELESS_SCORE" : 4,
              "LONGITUDE" : -80.126202,
              "LATITUDE" : 26.220829
            }
        },
        {
            "type" : "Feature",
            "geometry" : {
              "type" : "Point",
              "coordinates" : [ -80.381288, 26.111612 ]
            },
            "properties" : {
              "ZIP_CO_PSA" : "33326FTLDFLWN1205PA",
              "WIRELESS_SCORE" : 5,
              "LONGITUDE" : -80.381288,
              "LATITUDE" : 26.111612
            }
        },
        {
            "type" : "Feature",
            "geometry" : {
              "type" : "Point",
              "coordinates" : [ -80.4014885, 26.0186405 ]
            },
            "properties" : {
              "ZIP_CO_PSA" : "33029HLWDFLPE4205LA",
              "WIRELESS_SCORE" : 4,
              "LONGITUDE" : -80.4014885,
              "LATITUDE" : 26.0186405
            }
        },
        {
            "type" : "Feature",
            "geometry" : {
              "type" : "Point",
              "coordinates" : [ -80.207908, 26.671419 ]
            },
            "properties" : {
              "ZIP_CO_PSA" : "33414WPBHFLRP2111PE",
              "WIRELESS_SCORE" : 5,
              "LONGITUDE" : -80.207908,
              "LATITUDE" : 26.671419
            }
        },
        {
            "type" : "Feature",
            "geometry" : {
              "type" : "Point",
              "coordinates" : [ -82.40312, 28.505234 ]
            },
            "properties" : {
              "ZIP_CO_PSA" : "34601BKVLFLJF3708PB",
              "WIRELESS_SCORE" : 2,
              "LONGITUDE" : -82.40312,
              "LATITUDE" : 28.505234
            }
        },
        {
            "type" : "Feature",
            "geometry" : {
              "type" : "Point",
              "coordinates" : [ -83.988198, 30.841235 ]
            },
            "properties" : {
              "ZIP_CO_PSA" : "31792THVLGAMA1105PA",
              "WIRELESS_SCORE" : 4,
              "LONGITUDE" : -83.988198,
              "LATITUDE" : 30.841235
            }
        },
        {
            "type" : "Feature",
            "geometry" : {
              "type" : "Point",
              "coordinates" : [ -80.698188, 28.215612 ]
            },
            "properties" : {
              "ZIP_CO_PSA" : "32940EGLLFLBG1155PC",
              "WIRELESS_SCORE" : 4,
              "LONGITUDE" : -80.698188,
              "LATITUDE" : 28.215612
            }
        },
        {
            "type" : "Feature",
            "geometry" : {
              "type" : "Point",
              "coordinates" : [ -80.287963, 27.321583 ]
            },
            "properties" : {
              "ZIP_CO_PSA" : "34952PTSLFLMA2210PB",
              "WIRELESS_SCORE" : 3,
              "LONGITUDE" : -80.287963,
              "LATITUDE" : 27.321583
            }
        },
        {
            "type" : "Feature",
            "geometry" : {
              "type" : "Point",
              "coordinates" : [ -80.199713, 25.969249 ]
            },
            "properties" : {
              "ZIP_CO_PSA" : "33179NDADFLGG4113PB",
              "WIRELESS_SCORE" : 5,
              "LONGITUDE" : -80.199713,
              "LATITUDE" : 25.969249
            }
        },
        {
            "type" : "Feature",
            "geometry" : {
              "type" : "Point",
              "coordinates" : [ -80.266924, 27.09255 ]
            },
            "properties" : {
              "ZIP_CO_PSA" : "34997STRTFLMA7324PB",
              "WIRELESS_SCORE" : 3,
              "LONGITUDE" : -80.266924,
              "LATITUDE" : 27.09255
            }
        },
        {
            "type" : "Feature",
            "geometry" : {
              "type" : "Point",
              "coordinates" : [ -80.393063, 27.32699 ]
            },
            "properties" : {
              "ZIP_CO_PSA" : "34986PTSLFLMA5203PB",
              "WIRELESS_SCORE" : 3,
              "LONGITUDE" : -80.393063,
              "LATITUDE" : 27.32699
            }
        },
        {
            "type" : "Feature",
            "geometry" : {
              "type" : "Point",
              "coordinates" : [ -81.494694, 30.354651 ]
            },
            "properties" : {
              "ZIP_CO_PSA" : "32225JCVLFLBW1296PA",
              "WIRELESS_SCORE" : 4,
              "LONGITUDE" : -81.494694,
              "LATITUDE" : 30.354651
            }
        },
        {
            "type" : "Feature",
            "geometry" : {
              "type" : "Point",
              "coordinates" : [ -80.200206, 26.516585 ]
            },
            "properties" : {
              "ZIP_CO_PSA" : "33473BYBHFLMA4703PE",
              "WIRELESS_SCORE" : 3,
              "LONGITUDE" : -80.200206,
              "LATITUDE" : 26.516585
            }
        },
        {
            "type" : "Feature",
            "geometry" : {
              "type" : "Point",
              "coordinates" : [ -81.178379, 28.52318 ]
            },
            "properties" : {
              "ZIP_CO_PSA" : "32828ORLDFLAP2216PB",
              "WIRELESS_SCORE" : 3,
              "LONGITUDE" : -81.178379,
              "LATITUDE" : 28.52318
            }
        },
        {
            "type" : "Feature",
            "geometry" : {
              "type" : "Point",
              "coordinates" : [ -80.1636475, 26.717523 ]
            },
            "properties" : {
              "ZIP_CO_PSA" : "33411WPBHFLHH4210PC",
              "WIRELESS_SCORE" : 2,
              "LONGITUDE" : -80.1636475,
              "LATITUDE" : 26.717523
            }
        },
        {
            "type" : "Feature",
            "geometry" : {
              "type" : "Point",
              "coordinates" : [ -81.262094, 28.39431 ]
            },
            "properties" : {
              "ZIP_CO_PSA" : "32827ORLDFLPC2487PA",
              "WIRELESS_SCORE" : 2,
              "LONGITUDE" : -81.262094,
              "LATITUDE" : 28.39431
            }
        },
        {
            "type" : "Feature",
            "geometry" : {
              "type" : "Point",
              "coordinates" : [ -80.2384395, 26.721407 ]
            },
            "properties" : {
              "ZIP_CO_PSA" : "33411WPBHFLRP1138PB",
              "WIRELESS_SCORE" : 3,
              "LONGITUDE" : -80.2384395,
              "LATITUDE" : 26.721407
            }
        },
        {
            "type" : "Feature",
            "geometry" : {
              "type" : "Point",
              "coordinates" : [ -80.210053, 26.371408 ]
            },
            "properties" : {
              "ZIP_CO_PSA" : "33498BCRTFLSA4103LA",
              "WIRELESS_SCORE" : 4,
              "LONGITUDE" : -80.210053,
              "LATITUDE" : 26.371408
            }
        },
        {
            "type" : "Feature",
            "geometry" : {
              "type" : "Point",
              "coordinates" : [ -80.4011815, 26.011373 ]
            },
            "properties" : {
              "ZIP_CO_PSA" : "33029HLWDFLPE4205LI",
              "WIRELESS_SCORE" : 4,
              "LONGITUDE" : -80.4011815,
              "LATITUDE" : 26.011373
            }
        },
        {
            "type" : "Feature",
            "geometry" : {
              "type" : "Point",
              "coordinates" : [ -83.9853695, 30.8254845 ]
            },
            "properties" : {
              "ZIP_CO_PSA" : "31792THVLGAMA4101PA",
              "WIRELESS_SCORE" : 3,
              "LONGITUDE" : -83.9853695,
              "LATITUDE" : 30.8254845
            }
        },
        {
            "type" : "Feature",
            "geometry" : {
              "type" : "Point",
              "coordinates" : [ -81.2628855, 29.589214 ]
            },
            "properties" : {
              "ZIP_CO_PSA" : "32137PLCSFLMA3124PB",
              "WIRELESS_SCORE" : 4,
              "LONGITUDE" : -81.2628855,
              "LATITUDE" : 29.589214
            }
        },
        {
            "type" : "Feature",
            "geometry" : {
              "type" : "Point",
              "coordinates" : [ -80.182058, 26.307153 ]
            },
            "properties" : {
              "ZIP_CO_PSA" : "33073DRBHFLMA4504PD",
              "WIRELESS_SCORE" : 2,
              "LONGITUDE" : -80.182058,
              "LATITUDE" : 26.307153
            }
        },
        {
            "type" : "Feature",
            "geometry" : {
              "type" : "Point",
              "coordinates" : [ -80.1674765, 26.583758 ]
            },
            "properties" : {
              "ZIP_CO_PSA" : "33467WPBHFLGA3204PJ",
              "WIRELESS_SCORE" : 2,
              "LONGITUDE" : -80.1674765,
              "LATITUDE" : 26.583758
            }
        },
        {
            "type" : "Feature",
            "geometry" : {
              "type" : "Point",
              "coordinates" : [ -81.164259, 28.517828 ]
            },
            "properties" : {
              "ZIP_CO_PSA" : "32828ORLDFLAP2216PA",
              "WIRELESS_SCORE" : 3,
              "LONGITUDE" : -81.164259,
              "LATITUDE" : 28.517828
            }
        },
        {
            "type" : "Feature",
            "geometry" : {
              "type" : "Point",
              "coordinates" : [ -80.167629, 26.297785 ]
            },
            "properties" : {
              "ZIP_CO_PSA" : "33442DRBHFLMA4401PC",
              "WIRELESS_SCORE" : 3,
              "LONGITUDE" : -80.167629,
              "LATITUDE" : 26.297785
            }
        },
        {
            "type" : "Feature",
            "geometry" : {
              "type" : "Point",
              "coordinates" : [ -82.535178, 28.4451205 ]
            },
            "properties" : {
              "ZIP_CO_PSA" : "34609WWSPFLSH2240PA",
              "WIRELESS_SCORE" : 2,
              "LONGITUDE" : -82.535178,
              "LATITUDE" : 28.4451205
            }
        },
        {
            "type" : "Feature",
            "geometry" : {
              "type" : "Point",
              "coordinates" : [ -80.210423, 26.619308 ]
            },
            "properties" : {
              "ZIP_CO_PSA" : "33449WPBHFLGA4330LB",
              "WIRELESS_SCORE" : 3,
              "LONGITUDE" : -80.210423,
              "LATITUDE" : 26.619308
            }
        },
        {
            "type" : "Feature",
            "geometry" : {
              "type" : "Point",
              "coordinates" : [ -81.521111, 30.070931 ]
            },
            "properties" : {
              "ZIP_CO_PSA" : "32259STAGFLMA1186PF",
              "WIRELESS_SCORE" : 3,
              "LONGITUDE" : -81.521111,
              "LATITUDE" : 30.070931
            }
        },
        {
            "type" : "Feature",
            "geometry" : {
              "type" : "Point",
              "coordinates" : [ -80.341021, 26.024158 ]
            },
            "properties" : {
              "ZIP_CO_PSA" : "33028HLWDFLPE4219PG",
              "WIRELESS_SCORE" : 3,
              "LONGITUDE" : -80.341021,
              "LATITUDE" : 26.024158
            }
        },
        {
            "type" : "Feature",
            "geometry" : {
              "type" : "Point",
              "coordinates" : [ -81.216506, 28.426029 ]
            },
            "properties" : {
              "ZIP_CO_PSA" : "32832ORLDFLAP3601PB",
              "WIRELESS_SCORE" : 4,
              "LONGITUDE" : -81.216506,
              "LATITUDE" : 28.426029
            }
        },
        {
            "type" : "Feature",
            "geometry" : {
              "type" : "Point",
              "coordinates" : [ -80.3481425, 26.014732 ]
            },
            "properties" : {
              "ZIP_CO_PSA" : "33028HLWDFLPE4213PD",
              "WIRELESS_SCORE" : 4,
              "LONGITUDE" : -80.3481425,
              "LATITUDE" : 26.014732
            }
        },
        {
            "type" : "Feature",
            "geometry" : {
              "type" : "Point",
              "coordinates" : [ -80.421129, 27.304735 ]
            },
            "properties" : {
              "ZIP_CO_PSA" : "34986FTPRFLMA3505PF",
              "WIRELESS_SCORE" : 4,
              "LONGITUDE" : -80.421129,
              "LATITUDE" : 27.304735
            }
        },
        {
            "type" : "Feature",
            "geometry" : {
              "type" : "Point",
              "coordinates" : [ -80.162183, 26.929434 ]
            },
            "properties" : {
              "ZIP_CO_PSA" : "33478JPTRFLMA4344PQ",
              "WIRELESS_SCORE" : 4,
              "LONGITUDE" : -80.162183,
              "LATITUDE" : 26.929434
            }
        },
        {
            "type" : "Feature",
            "geometry" : {
              "type" : "Point",
              "coordinates" : [ -80.216314, 26.36537 ]
            },
            "properties" : {
              "ZIP_CO_PSA" : "33428BCRTFLSA4102LB",
              "WIRELESS_SCORE" : 3,
              "LONGITUDE" : -80.216314,
              "LATITUDE" : 26.36537
            }
        },
        {
            "type" : "Feature",
            "geometry" : {
              "type" : "Point",
              "coordinates" : [ -80.182943, 26.400322 ]
            },
            "properties" : {
              "ZIP_CO_PSA" : "33496BCRTFLSA2118LA",
              "WIRELESS_SCORE" : 3,
              "LONGITUDE" : -80.182943,
              "LATITUDE" : 26.400322
            }
        },
        {
            "type" : "Feature",
            "geometry" : {
              "type" : "Point",
              "coordinates" : [ -80.19651, 26.714339 ]
            },
            "properties" : {
              "ZIP_CO_PSA" : "33411WPBHFLRP1205PC",
              "WIRELESS_SCORE" : 3,
              "LONGITUDE" : -80.19651,
              "LATITUDE" : 26.714339
            }
        },
        {
            "type" : "Feature",
            "geometry" : {
              "type" : "Point",
              "coordinates" : [ -80.206096, 26.789865 ]
            },
            "properties" : {
              "ZIP_CO_PSA" : "33412WPBHFLGR4405PE",
              "WIRELESS_SCORE" : 3,
              "LONGITUDE" : -80.206096,
              "LATITUDE" : 26.789865
            }
        },
        {
            "type" : "Feature",
            "geometry" : {
              "type" : "Point",
              "coordinates" : [ -80.4262005, 26.023495 ]
            },
            "properties" : {
              "ZIP_CO_PSA" : "33029HLWDFLPE4206PE",
              "WIRELESS_SCORE" : 4,
              "LONGITUDE" : -80.4262005,
              "LATITUDE" : 26.023495
            }
        },
        {
            "type" : "Feature",
            "geometry" : {
              "type" : "Point",
              "coordinates" : [ -80.118772, 26.268078 ]
            },
            "properties" : {
              "ZIP_CO_PSA" : "33064PMBHFLFE1203PA",
              "WIRELESS_SCORE" : 4,
              "LONGITUDE" : -80.118772,
              "LATITUDE" : 26.268078
            }
        },
        {
            "type" : "Feature",
            "geometry" : {
              "type" : "Point",
              "coordinates" : [ -80.210014, 26.388695 ]
            },
            "properties" : {
              "ZIP_CO_PSA" : "33498BCRTFLSA1102LB",
              "WIRELESS_SCORE" : 4,
              "LONGITUDE" : -80.210014,
              "LATITUDE" : 26.388695
            }
        },
        {
            "type" : "Feature",
            "geometry" : {
              "type" : "Point",
              "coordinates" : [ -81.372713, 30.183053 ]
            },
            "properties" : {
              "ZIP_CO_PSA" : "32082PNVDFLMA3317PB",
              "WIRELESS_SCORE" : 4,
              "LONGITUDE" : -81.372713,
              "LATITUDE" : 30.183053
            }
        },
        {
            "type" : "Feature",
            "geometry" : {
              "type" : "Point",
              "coordinates" : [ -80.681158, 28.010381 ]
            },
            "properties" : {
              "ZIP_CO_PSA" : "32907MLBRFLMA3137PC",
              "WIRELESS_SCORE" : 2,
              "LONGITUDE" : -80.681158,
              "LATITUDE" : 28.010381
            }
        },
        {
            "type" : "Feature",
            "geometry" : {
              "type" : "Point",
              "coordinates" : [ -80.105138, 26.3153265 ]
            },
            "properties" : {
              "ZIP_CO_PSA" : "33441DRBHFLMA1101PA",
              "WIRELESS_SCORE" : 5,
              "LONGITUDE" : -80.105138,
              "LATITUDE" : 26.3153265
            }
        },
        {
            "type" : "Feature",
            "geometry" : {
              "type" : "Point",
              "coordinates" : [ -81.3783825, 28.579611 ]
            },
            "properties" : {
              "ZIP_CO_PSA" : "32804ORLDFLCL1513PB",
              "WIRELESS_SCORE" : 5,
              "LONGITUDE" : -81.3783825,
              "LATITUDE" : 28.579611
            }
        },
        {
            "type" : "Feature",
            "geometry" : {
              "type" : "Point",
              "coordinates" : [ -81.311528, 29.018396 ]
            },
            "properties" : {
              "ZIP_CO_PSA" : "32720DELDFLMA3104PA",
              "WIRELESS_SCORE" : 3,
              "LONGITUDE" : -81.311528,
              "LATITUDE" : 29.018396
            }
        },
        {
            "type" : "Feature",
            "geometry" : {
              "type" : "Point",
              "coordinates" : [ -81.157149, 28.522632 ]
            },
            "properties" : {
              "ZIP_CO_PSA" : "32828ORLDFLAP2218PC",
              "WIRELESS_SCORE" : 4,
              "LONGITUDE" : -81.157149,
              "LATITUDE" : 28.522632
            }
        },
        {
            "type" : "Feature",
            "geometry" : {
              "type" : "Point",
              "coordinates" : [ -81.250098, 28.401843 ]
            },
            "properties" : {
              "ZIP_CO_PSA" : "32827ORLDFLPC2485PC",
              "WIRELESS_SCORE" : 4,
              "LONGITUDE" : -81.250098,
              "LATITUDE" : 28.401843
            }
        },
        {
            "type" : "Feature",
            "geometry" : {
              "type" : "Point",
              "coordinates" : [ -81.682536, 30.363962 ]
            },
            "properties" : {
              "ZIP_CO_PSA" : "32209JCVLFLLF4201PA",
              "WIRELESS_SCORE" : 3,
              "LONGITUDE" : -81.682536,
              "LATITUDE" : 30.363962
            }
        },
        {
            "type" : "Feature",
            "geometry" : {
              "type" : "Point",
              "coordinates" : [ -80.328979, 25.78706 ]
            },
            "properties" : {
              "ZIP_CO_PSA" : "33126MIAMFLPL3193PB",
              "WIRELESS_SCORE" : 3,
              "LONGITUDE" : -80.328979,
              "LATITUDE" : 25.78706
            }
        },
        {
            "type" : "Feature",
            "geometry" : {
              "type" : "Point",
              "coordinates" : [ -82.412448, 28.5049925 ]
            },
            "properties" : {
              "ZIP_CO_PSA" : "34601BKVLFLJF3708PA",
              "WIRELESS_SCORE" : 3,
              "LONGITUDE" : -82.412448,
              "LATITUDE" : 28.5049925
            }
        },
        {
            "type" : "Feature",
            "geometry" : {
              "type" : "Point",
              "coordinates" : [ -80.106753, 26.860192 ]
            },
            "properties" : {
              "ZIP_CO_PSA" : "33418WPBHFLGR1206PD",
              "WIRELESS_SCORE" : 2,
              "LONGITUDE" : -80.106753,
              "LATITUDE" : 26.860192
            }
        },
        {
            "type" : "Feature",
            "geometry" : {
              "type" : "Point",
              "coordinates" : [ -80.658433, 28.136922 ]
            },
            "properties" : {
              "ZIP_CO_PSA" : "32935EGLLFLBG5102PA",
              "WIRELESS_SCORE" : 4,
              "LONGITUDE" : -80.658433,
              "LATITUDE" : 28.136922
            }
        },
        {
            "type" : "Feature",
            "geometry" : {
              "type" : "Point",
              "coordinates" : [ -81.205653, 28.580152 ]
            },
            "properties" : {
              "ZIP_CO_PSA" : "32826ORLDFLAP2602PD",
              "WIRELESS_SCORE" : 4,
              "LONGITUDE" : -81.205653,
              "LATITUDE" : 28.580152
            }
        },
        {
            "type" : "Feature",
            "geometry" : {
              "type" : "Point",
              "coordinates" : [ -80.118821, 26.840566 ]
            },
            "properties" : {
              "ZIP_CO_PSA" : "33418WPBHFLGR4105PB",
              "WIRELESS_SCORE" : 3,
              "LONGITUDE" : -80.118821,
              "LATITUDE" : 26.840566
            }
        },
        {
            "type" : "Feature",
            "geometry" : {
              "type" : "Point",
              "coordinates" : [ -80.1837465, 26.571242 ]
            },
            "properties" : {
              "ZIP_CO_PSA" : "33467WPBHFLGA4306PD",
              "WIRELESS_SCORE" : 3,
              "LONGITUDE" : -80.1837465,
              "LATITUDE" : 26.571242
            }
        },
        {
            "type" : "Feature",
            "geometry" : {
              "type" : "Point",
              "coordinates" : [ -81.149895, 29.522029 ]
            },
            "properties" : {
              "ZIP_CO_PSA" : "32136FLBHFLMA1116PA",
              "WIRELESS_SCORE" : 2,
              "LONGITUDE" : -81.149895,
              "LATITUDE" : 29.522029
            }
        },
        {
            "type" : "Feature",
            "geometry" : {
              "type" : "Point",
              "coordinates" : [ -81.319262, 29.81592 ]
            },
            "properties" : {
              "ZIP_CO_PSA" : "32086STAGFLSH1107PB",
              "WIRELESS_SCORE" : 2,
              "LONGITUDE" : -81.319262,
              "LATITUDE" : 29.81592
            }
        },
        {
            "type" : "Feature",
            "geometry" : {
              "type" : "Point",
              "coordinates" : [ -80.2474085, 25.792009 ]
            },
            "properties" : {
              "ZIP_CO_PSA" : "33125MIAMFLAL3208PG",
              "WIRELESS_SCORE" : 3,
              "LONGITUDE" : -80.2474085,
              "LATITUDE" : 25.792009
            }
        },
        {
            "type" : "Feature",
            "geometry" : {
              "type" : "Point",
              "coordinates" : [ -80.207852, 25.946982 ]
            },
            "properties" : {
              "ZIP_CO_PSA" : "33169NDADFLGG3201PD",
              "WIRELESS_SCORE" : 2,
              "LONGITUDE" : -80.207852,
              "LATITUDE" : 25.946982
            }
        },
        {
            "type" : "Feature",
            "geometry" : {
              "type" : "Point",
              "coordinates" : [ -80.242018, 25.963416 ]
            },
            "properties" : {
              "ZIP_CO_PSA" : "33056NDADFLBR1209PD",
              "WIRELESS_SCORE" : 4,
              "LONGITUDE" : -80.242018,
              "LATITUDE" : 25.963416
            }
        },
        {
            "type" : "Feature",
            "geometry" : {
              "type" : "Point",
              "coordinates" : [ -81.3444105, 28.509774 ]
            },
            "properties" : {
              "ZIP_CO_PSA" : "32806ORLDFLCL3367PA",
              "WIRELESS_SCORE" : 4,
              "LONGITUDE" : -81.3444105,
              "LATITUDE" : 28.509774
            }
        },
        {
            "type" : "Feature",
            "geometry" : {
              "type" : "Point",
              "coordinates" : [ -83.951298, 30.82314 ]
            },
            "properties" : {
              "ZIP_CO_PSA" : "31792THVLGAMA3120PB",
              "WIRELESS_SCORE" : 4,
              "LONGITUDE" : -83.951298,
              "LATITUDE" : 30.82314
            }
        },
        {
            "type" : "Feature",
            "geometry" : {
              "type" : "Point",
              "coordinates" : [ -80.1266825, 26.576434 ]
            },
            "properties" : {
              "ZIP_CO_PSA" : "33463WPBHFLGA3211PB",
              "WIRELESS_SCORE" : 2,
              "LONGITUDE" : -80.1266825,
              "LATITUDE" : 26.576434
            }
        },
        {
            "type" : "Feature",
            "geometry" : {
              "type" : "Point",
              "coordinates" : [ -81.3541495, 28.516629 ]
            },
            "properties" : {
              "ZIP_CO_PSA" : "32806ORLDFLCL3350PC",
              "WIRELESS_SCORE" : 5,
              "LONGITUDE" : -81.3541495,
              "LATITUDE" : 28.516629
            }
        },
        {
            "type" : "Feature",
            "geometry" : {
              "type" : "Point",
              "coordinates" : [ -80.202584, 26.24952 ]
            },
            "properties" : {
              "ZIP_CO_PSA" : "33063PMBHFLMA1103PB",
              "WIRELESS_SCORE" : 5,
              "LONGITUDE" : -80.202584,
              "LATITUDE" : 26.24952
            }
        },
        {
            "type" : "Feature",
            "geometry" : {
              "type" : "Point",
              "coordinates" : [ -80.234692, 25.821396 ]
            },
            "properties" : {
              "ZIP_CO_PSA" : "33142MIAMFLAL1108PF",
              "WIRELESS_SCORE" : 3,
              "LONGITUDE" : -80.234692,
              "LATITUDE" : 25.821396
            }
        },
        {
            "type" : "Feature",
            "geometry" : {
              "type" : "Point",
              "coordinates" : [ -81.235251, 28.887539 ]
            },
            "properties" : {
              "ZIP_CO_PSA" : "32725DBRYFLDL2101PA",
              "WIRELESS_SCORE" : 4,
              "LONGITUDE" : -81.235251,
              "LATITUDE" : 28.887539
            }
        },
        {
            "type" : "Feature",
            "geometry" : {
              "type" : "Point",
              "coordinates" : [ -80.068035, 26.549723 ]
            },
            "properties" : {
              "ZIP_CO_PSA" : "33435BYBHFLMA1207PA",
              "WIRELESS_SCORE" : 4,
              "LONGITUDE" : -80.068035,
              "LATITUDE" : 26.549723
            }
        },
        {
            "type" : "Feature",
            "geometry" : {
              "type" : "Point",
              "coordinates" : [ -80.316691, 26.134009 ]
            },
            "properties" : {
              "ZIP_CO_PSA" : "33323FTLDFLSG2202PA",
              "WIRELESS_SCORE" : 3,
              "LONGITUDE" : -80.316691,
              "LATITUDE" : 26.134009
            }
        },
        {
            "type" : "Feature",
            "geometry" : {
              "type" : "Point",
              "coordinates" : [ -81.461927, 28.570246 ]
            },
            "properties" : {
              "ZIP_CO_PSA" : "32808ORLDFLPH4110PB",
              "WIRELESS_SCORE" : 4,
              "LONGITUDE" : -81.461927,
              "LATITUDE" : 28.570246
            }
        },
        {
            "type" : "Feature",
            "geometry" : {
              "type" : "Point",
              "coordinates" : [ -80.3268505, 26.01645 ]
            },
            "properties" : {
              "ZIP_CO_PSA" : "33028HLWDFLPE4219PD",
              "WIRELESS_SCORE" : 2,
              "LONGITUDE" : -80.3268505,
              "LATITUDE" : 26.01645
            }
        },
        {
            "type" : "Feature",
            "geometry" : {
              "type" : "Point",
              "coordinates" : [ -80.466692, 27.775125 ]
            },
            "properties" : {
              "ZIP_CO_PSA" : "32958SBSTFLMA3133PB",
              "WIRELESS_SCORE" : 4,
              "LONGITUDE" : -80.466692,
              "LATITUDE" : 27.775125
            }
        },
        {
            "type" : "Feature",
            "geometry" : {
              "type" : "Point",
              "coordinates" : [ -80.271932, 26.131734 ]
            },
            "properties" : {
              "ZIP_CO_PSA" : "33324FTLDFLJA2106PC",
              "WIRELESS_SCORE" : 2,
              "LONGITUDE" : -80.271932,
              "LATITUDE" : 26.131734
            }
        },
        {
            "type" : "Feature",
            "geometry" : {
              "type" : "Point",
              "coordinates" : [ -81.144738, 28.51519 ]
            },
            "properties" : {
              "ZIP_CO_PSA" : "32828ORLDFLAP2218PB",
              "WIRELESS_SCORE" : 3,
              "LONGITUDE" : -81.144738,
              "LATITUDE" : 28.51519
            }
        },
        {
            "type" : "Feature",
            "geometry" : {
              "type" : "Point",
              "coordinates" : [ -80.5618125, 28.068729 ]
            },
            "properties" : {
              "ZIP_CO_PSA" : "32951MLBRFLMA1140PB",
              "WIRELESS_SCORE" : 2,
              "LONGITUDE" : -80.5618125,
              "LATITUDE" : 28.068729
            }
        },
        {
            "type" : "Feature",
            "geometry" : {
              "type" : "Point",
              "coordinates" : [ -80.331478, 25.951964 ]
            },
            "properties" : {
              "ZIP_CO_PSA" : "33015MIAMFLHL1602PB",
              "WIRELESS_SCORE" : 4,
              "LONGITUDE" : -80.331478,
              "LATITUDE" : 25.951964
            }
        },
        {
            "type" : "Feature",
            "geometry" : {
              "type" : "Point",
              "coordinates" : [ -85.780804, 30.17359 ]
            },
            "properties" : {
              "ZIP_CO_PSA" : "32408PCBHFLNT2148PB",
              "WIRELESS_SCORE" : 4,
              "LONGITUDE" : -85.780804,
              "LATITUDE" : 30.17359
            }
        },
        {
            "type" : "Feature",
            "geometry" : {
              "type" : "Point",
              "coordinates" : [ -81.433991, 28.469 ]
            },
            "properties" : {
              "ZIP_CO_PSA" : "32809ORLDFLSA1530PA",
              "WIRELESS_SCORE" : 5,
              "LONGITUDE" : -81.433991,
              "LATITUDE" : 28.469
            }
        },
        {
            "type" : "Feature",
            "geometry" : {
              "type" : "Point",
              "coordinates" : [ -81.7614, 30.0443 ]
            },
            "properties" : {
              "ZIP_CO_PSA" : "32043GCSPFLCN1120ZC",
              "WIRELESS_SCORE" : 5,
              "LONGITUDE" : -81.7614,
              "LATITUDE" : 30.0443
            }
        },
        {
            "type" : "Feature",
            "geometry" : {
              "type" : "Point",
              "coordinates" : [ -80.156945, 26.44852 ]
            },
            "properties" : {
              "ZIP_CO_PSA" : "33446DLBHFLKP4104PB",
              "WIRELESS_SCORE" : 3,
              "LONGITUDE" : -80.156945,
              "LATITUDE" : 26.44852
            }
        },
        {
            "type" : "Feature",
            "geometry" : {
              "type" : "Point",
              "coordinates" : [ -80.903387, 28.956061 ]
            },
            "properties" : {
              "ZIP_CO_PSA" : "32141NSBHFLMA4307PA",
              "WIRELESS_SCORE" : 2,
              "LONGITUDE" : -80.903387,
              "LATITUDE" : 28.956061
            }
        },
        {
            "type" : "Feature",
            "geometry" : {
              "type" : "Point",
              "coordinates" : [ -80.4062485, 26.0141135 ]
            },
            "properties" : {
              "ZIP_CO_PSA" : "33029HLWDFLPE4205LF",
              "WIRELESS_SCORE" : 3,
              "LONGITUDE" : -80.4062485,
              "LATITUDE" : 26.0141135
            }
        },
        {
            "type" : "Feature",
            "geometry" : {
              "type" : "Point",
              "coordinates" : [ -80.184819, 26.365706 ]
            },
            "properties" : {
              "ZIP_CO_PSA" : "33433BCRTFLSA2103LD",
              "WIRELESS_SCORE" : 4,
              "LONGITUDE" : -80.184819,
              "LATITUDE" : 26.365706
            }
        },
        {
            "type" : "Feature",
            "geometry" : {
              "type" : "Point",
              "coordinates" : [ -81.362478, 28.551107 ]
            },
            "properties" : {
              "ZIP_CO_PSA" : "32803ORLDFLCL1121PB",
              "WIRELESS_SCORE" : 5,
              "LONGITUDE" : -81.362478,
              "LATITUDE" : 28.551107
            }
        },
        {
            "type" : "Feature",
            "geometry" : {
              "type" : "Point",
              "coordinates" : [ -80.808352, 28.464692 ]
            },
            "properties" : {
              "ZIP_CO_PSA" : "32927COCOFLMA1345PB",
              "WIRELESS_SCORE" : 2,
              "LONGITUDE" : -80.808352,
              "LATITUDE" : 28.464692
            }
        },
        {
            "type" : "Feature",
            "geometry" : {
              "type" : "Point",
              "coordinates" : [ -81.054821, 29.213629 ]
            },
            "properties" : {
              "ZIP_CO_PSA" : "32114DYBHFLMA3330PA",
              "WIRELESS_SCORE" : 3,
              "LONGITUDE" : -81.054821,
              "LATITUDE" : 29.213629
            }
        },
        {
            "type" : "Feature",
            "geometry" : {
              "type" : "Point",
              "coordinates" : [ -80.34697, 25.9475425 ]
            },
            "properties" : {
              "ZIP_CO_PSA" : "33018MIAMFLHL1701PF",
              "WIRELESS_SCORE" : 5,
              "LONGITUDE" : -80.34697,
              "LATITUDE" : 25.9475425
            }
        },
        {
            "type" : "Feature",
            "geometry" : {
              "type" : "Point",
              "coordinates" : [ -81.642031, 30.339356 ]
            },
            "properties" : {
              "ZIP_CO_PSA" : "32206JCVLFLCL1320PB",
              "WIRELESS_SCORE" : 4,
              "LONGITUDE" : -81.642031,
              "LATITUDE" : 30.339356
            }
        },
        {
            "type" : "Feature",
            "geometry" : {
              "type" : "Point",
              "coordinates" : [ -80.346279, 25.740565 ]
            },
            "properties" : {
              "ZIP_CO_PSA" : "33165MIAMFLCA2201PC",
              "WIRELESS_SCORE" : 4,
              "LONGITUDE" : -80.346279,
              "LATITUDE" : 25.740565
            }
        },
        {
            "type" : "Feature",
            "geometry" : {
              "type" : "Point",
              "coordinates" : [ -81.0455415, 29.208124 ]
            },
            "properties" : {
              "ZIP_CO_PSA" : "32114DYBHFLMA3112PA",
              "WIRELESS_SCORE" : 4,
              "LONGITUDE" : -81.0455415,
              "LATITUDE" : 29.208124
            }
        },
        {
            "type" : "Feature",
            "geometry" : {
              "type" : "Point",
              "coordinates" : [ -80.701272, 27.9941275 ]
            },
            "properties" : {
              "ZIP_CO_PSA" : "32908MLBRFLMA3137PB",
              "WIRELESS_SCORE" : 2,
              "LONGITUDE" : -80.701272,
              "LATITUDE" : 27.9941275
            }
        },
        {
            "type" : "Feature",
            "geometry" : {
              "type" : "Point",
              "coordinates" : [ -80.239621, 26.9206155 ]
            },
            "properties" : {
              "ZIP_CO_PSA" : "33478JPTRFLMA4361PF",
              "WIRELESS_SCORE" : 2,
              "LONGITUDE" : -80.239621,
              "LATITUDE" : 26.9206155
            }
        },
        {
            "type" : "Feature",
            "geometry" : {
              "type" : "Point",
              "coordinates" : [ -80.166511, 26.126915 ]
            },
            "properties" : {
              "ZIP_CO_PSA" : "33311FTLDFLMR4106PA",
              "WIRELESS_SCORE" : 3,
              "LONGITUDE" : -80.166511,
              "LATITUDE" : 26.126915
            }
        },
        {
            "type" : "Feature",
            "geometry" : {
              "type" : "Point",
              "coordinates" : [ -80.070136, 26.4786215 ]
            },
            "properties" : {
              "ZIP_CO_PSA" : "33444DLBHFLMA1204PA",
              "WIRELESS_SCORE" : 2,
              "LONGITUDE" : -80.070136,
              "LATITUDE" : 26.4786215
            }
        },
        {
            "type" : "Feature",
            "geometry" : {
              "type" : "Point",
              "coordinates" : [ -81.0773285, 29.2513105 ]
            },
            "properties" : {
              "ZIP_CO_PSA" : "32174DYBHFLOB4309PC",
              "WIRELESS_SCORE" : 5,
              "LONGITUDE" : -81.0773285,
              "LATITUDE" : 29.2513105
            }
        },
        {
            "type" : "Feature",
            "geometry" : {
              "type" : "Point",
              "coordinates" : [ -80.6342435, 27.969893 ]
            },
            "properties" : {
              "ZIP_CO_PSA" : "32909MLBRFLMA3182PA",
              "WIRELESS_SCORE" : 3,
              "LONGITUDE" : -80.6342435,
              "LATITUDE" : 27.969893
            }
        },
        {
            "type" : "Feature",
            "geometry" : {
              "type" : "Point",
              "coordinates" : [ -82.480442, 28.974987 ]
            },
            "properties" : {
              "ZIP_CO_PSA" : "34433DNLNFLWM3233PA",
              "WIRELESS_SCORE" : 2,
              "LONGITUDE" : -82.480442,
              "LATITUDE" : 28.974987
            }
        },
        {
            "type" : "Feature",
            "geometry" : {
              "type" : "Point",
              "coordinates" : [ -82.01669, 29.78659 ]
            },
            "properties" : {
              "ZIP_CO_PSA" : "32656KYHGFLMA2104PA",
              "WIRELESS_SCORE" : 3,
              "LONGITUDE" : -82.01669,
              "LATITUDE" : 29.78659
            }
        },
        {
            "type" : "Feature",
            "geometry" : {
              "type" : "Point",
              "coordinates" : [ -81.394551, 28.5375205 ]
            },
            "properties" : {
              "ZIP_CO_PSA" : "32805ORLDFLMA5120PB",
              "WIRELESS_SCORE" : 5,
              "LONGITUDE" : -81.394551,
              "LATITUDE" : 28.5375205
            }
        },
        {
            "type" : "Feature",
            "geometry" : {
              "type" : "Point",
              "coordinates" : [ -81.410886, 30.3276385 ]
            },
            "properties" : {
              "ZIP_CO_PSA" : "32233JCBHFLMA4128PA",
              "WIRELESS_SCORE" : 4,
              "LONGITUDE" : -81.410886,
              "LATITUDE" : 30.3276385
            }
        },
        {
            "type" : "Feature",
            "geometry" : {
              "type" : "Point",
              "coordinates" : [ -80.417639, 27.332933 ]
            },
            "properties" : {
              "ZIP_CO_PSA" : "34986FTPRFLMA3505PC",
              "WIRELESS_SCORE" : 3,
              "LONGITUDE" : -80.417639,
              "LATITUDE" : 27.332933
            }
        },
        {
            "type" : "Feature",
            "geometry" : {
              "type" : "Point",
              "coordinates" : [ -80.424796, 27.303852 ]
            },
            "properties" : {
              "ZIP_CO_PSA" : "34986FTPRFLMA3505PB",
              "WIRELESS_SCORE" : 4,
              "LONGITUDE" : -80.424796,
              "LATITUDE" : 27.303852
            }
        },
        {
            "type" : "Feature",
            "geometry" : {
              "type" : "Point",
              "coordinates" : [ -80.692573, 28.363668 ]
            },
            "properties" : {
              "ZIP_CO_PSA" : "32953COCOFLME3102PB",
              "WIRELESS_SCORE" : 5,
              "LONGITUDE" : -80.692573,
              "LATITUDE" : 28.363668
            }
        },
        {
            "type" : "Feature",
            "geometry" : {
              "type" : "Point",
              "coordinates" : [ -80.115009, 26.825729 ]
            },
            "properties" : {
              "ZIP_CO_PSA" : "33418WPBHFLGR5104PD",
              "WIRELESS_SCORE" : 2,
              "LONGITUDE" : -80.115009,
              "LATITUDE" : 26.825729
            }
        },
        {
            "type" : "Feature",
            "geometry" : {
              "type" : "Point",
              "coordinates" : [ -80.202246, 25.9695045 ]
            },
            "properties" : {
              "ZIP_CO_PSA" : "33169NDADFLGG4113PB",
              "WIRELESS_SCORE" : 5,
              "LONGITUDE" : -80.202246,
              "LATITUDE" : 25.9695045
            }
        },
        {
            "type" : "Feature",
            "geometry" : {
              "type" : "Point",
              "coordinates" : [ -80.084343, 26.471682 ]
            },
            "properties" : {
              "ZIP_CO_PSA" : "33444DLBHFLMA1106PA",
              "WIRELESS_SCORE" : 3,
              "LONGITUDE" : -80.084343,
              "LATITUDE" : 26.471682
            }
        },
        {
            "type" : "Feature",
            "geometry" : {
              "type" : "Point",
              "coordinates" : [ -80.1683535, 26.540612 ]
            },
            "properties" : {
              "ZIP_CO_PSA" : "33472BYBHFLMA4602PB",
              "WIRELESS_SCORE" : 2,
              "LONGITUDE" : -80.1683535,
              "LATITUDE" : 26.540612
            }
        },
        {
            "type" : "Feature",
            "geometry" : {
              "type" : "Point",
              "coordinates" : [ -81.148809, 28.508164 ]
            },
            "properties" : {
              "ZIP_CO_PSA" : "32828ORLDFLAP2218PA",
              "WIRELESS_SCORE" : 3,
              "LONGITUDE" : -81.148809,
              "LATITUDE" : 28.508164
            }
        },
        {
            "type" : "Feature",
            "geometry" : {
              "type" : "Point",
              "coordinates" : [ -80.612533, 28.016396 ]
            },
            "properties" : {
              "ZIP_CO_PSA" : "32905MLBRFLMA3146PB",
              "WIRELESS_SCORE" : 5,
              "LONGITUDE" : -80.612533,
              "LATITUDE" : 28.016396
            }
        },
        {
            "type" : "Feature",
            "geometry" : {
              "type" : "Point",
              "coordinates" : [ -80.150046, 26.045813 ]
            },
            "properties" : {
              "ZIP_CO_PSA" : "33004HLWDFLMA1401PC",
              "WIRELESS_SCORE" : 4,
              "LONGITUDE" : -80.150046,
              "LATITUDE" : 26.045813
            }
        },
        {
            "type" : "Feature",
            "geometry" : {
              "type" : "Point",
              "coordinates" : [ -80.417005, 25.630497 ]
            },
            "properties" : {
              "ZIP_CO_PSA" : "33186PRRNFLMA7405PB",
              "WIRELESS_SCORE" : 2,
              "LONGITUDE" : -80.417005,
              "LATITUDE" : 25.630497
            }
        },
        {
            "type" : "Feature",
            "geometry" : {
              "type" : "Point",
              "coordinates" : [ -80.175198, 25.943838 ]
            },
            "properties" : {
              "ZIP_CO_PSA" : "33179NDADFLAC5804PC",
              "WIRELESS_SCORE" : 4,
              "LONGITUDE" : -80.175198,
              "LATITUDE" : 25.943838
            }
        },
        {
            "type" : "Feature",
            "geometry" : {
              "type" : "Point",
              "coordinates" : [ -80.11172, 26.748006 ]
            },
            "properties" : {
              "ZIP_CO_PSA" : "33417WPBHFLHH1276PA",
              "WIRELESS_SCORE" : 2,
              "LONGITUDE" : -80.11172,
              "LATITUDE" : 26.748006
            }
        },
        {
            "type" : "Feature",
            "geometry" : {
              "type" : "Point",
              "coordinates" : [ -80.1235585, 26.8476935 ]
            },
            "properties" : {
              "ZIP_CO_PSA" : "33418WPBHFLGR4105PA",
              "WIRELESS_SCORE" : 2,
              "LONGITUDE" : -80.1235585,
              "LATITUDE" : 26.8476935
            }
        },
        {
            "type" : "Feature",
            "geometry" : {
              "type" : "Point",
              "coordinates" : [ -80.142118, 26.370814 ]
            },
            "properties" : {
              "ZIP_CO_PSA" : "33434BCRTFLSA2208LD",
              "WIRELESS_SCORE" : 3,
              "LONGITUDE" : -80.142118,
              "LATITUDE" : 26.370814
            }
        },
        {
            "type" : "Feature",
            "geometry" : {
              "type" : "Point",
              "coordinates" : [ -81.503057, 30.069079 ]
            },
            "properties" : {
              "ZIP_CO_PSA" : "32259STAGFLMA1186ZA",
              "WIRELESS_SCORE" : 5,
              "LONGITUDE" : -81.503057,
              "LATITUDE" : 30.069079
            }
        },
        {
            "type" : "Feature",
            "geometry" : {
              "type" : "Point",
              "coordinates" : [ -80.1683255, 26.455983 ]
            },
            "properties" : {
              "ZIP_CO_PSA" : "33446DLBHFLKP4207PB",
              "WIRELESS_SCORE" : 4,
              "LONGITUDE" : -80.1683255,
              "LATITUDE" : 26.455983
            }
        },
        {
            "type" : "Feature",
            "geometry" : {
              "type" : "Point",
              "coordinates" : [ -80.107306, 26.8693595 ]
            },
            "properties" : {
              "ZIP_CO_PSA" : "33418WPBHFLGR1206PC",
              "WIRELESS_SCORE" : 4,
              "LONGITUDE" : -80.107306,
              "LATITUDE" : 26.8693595
            }
        },
        {
            "type" : "Feature",
            "geometry" : {
              "type" : "Point",
              "coordinates" : [ -80.4053, 26.067124 ]
            },
            "properties" : {
              "ZIP_CO_PSA" : "33332FTLDFLWN3304PB",
              "WIRELESS_SCORE" : 1,
              "LONGITUDE" : -80.4053,
              "LATITUDE" : 26.067124
            }
        },
        {
            "type" : "Feature",
            "geometry" : {
              "type" : "Point",
              "coordinates" : [ -80.7498965, 28.329507 ]
            },
            "properties" : {
              "ZIP_CO_PSA" : "32955COCOFLMA4114PA",
              "WIRELESS_SCORE" : 3,
              "LONGITUDE" : -80.7498965,
              "LATITUDE" : 28.329507
            }
        },
        {
            "type" : "Feature",
            "geometry" : {
              "type" : "Point",
              "coordinates" : [ -80.1839935, 26.2819495 ]
            },
            "properties" : {
              "ZIP_CO_PSA" : "33073PMBHFLMA6115PB",
              "WIRELESS_SCORE" : 3,
              "LONGITUDE" : -80.1839935,
              "LATITUDE" : 26.2819495
            }
        },
        {
            "type" : "Feature",
            "geometry" : {
              "type" : "Point",
              "coordinates" : [ -80.379021, 27.430452 ]
            },
            "properties" : {
              "ZIP_CO_PSA" : "34947FTPRFLMA5205PC",
              "WIRELESS_SCORE" : 4,
              "LONGITUDE" : -80.379021,
              "LATITUDE" : 27.430452
            }
        },
        {
            "type" : "Feature",
            "geometry" : {
              "type" : "Point",
              "coordinates" : [ -80.239389, 26.35311 ]
            },
            "properties" : {
              "ZIP_CO_PSA" : "33428BCRTFLSA3202PF",
              "WIRELESS_SCORE" : 2,
              "LONGITUDE" : -80.239389,
              "LATITUDE" : 26.35311
            }
        },
        {
            "type" : "Feature",
            "geometry" : {
              "type" : "Point",
              "coordinates" : [ -80.808548, 28.549474 ]
            },
            "properties" : {
              "ZIP_CO_PSA" : "32780TTVLFLMA2420PD",
              "WIRELESS_SCORE" : 4,
              "LONGITUDE" : -80.808548,
              "LATITUDE" : 28.549474
            }
        },
        {
            "type" : "Feature",
            "geometry" : {
              "type" : "Point",
              "coordinates" : [ -81.2236515, 28.3619845 ]
            },
            "properties" : {
              "ZIP_CO_PSA" : "32832ORLDFLAP3901PK",
              "WIRELESS_SCORE" : 4,
              "LONGITUDE" : -81.2236515,
              "LATITUDE" : 28.3619845
            }
        },
        {
            "type" : "Feature",
            "geometry" : {
              "type" : "Point",
              "coordinates" : [ -80.236578, 27.125104 ]
            },
            "properties" : {
              "ZIP_CO_PSA" : "34997STRTFLMA7216PD",
              "WIRELESS_SCORE" : 3,
              "LONGITUDE" : -80.236578,
              "LATITUDE" : 27.125104
            }
        },
        {
            "type" : "Feature",
            "geometry" : {
              "type" : "Point",
              "coordinates" : [ -81.282349, 28.798337 ]
            },
            "properties" : {
              "ZIP_CO_PSA" : "32771SNFRFLMA4115PA",
              "WIRELESS_SCORE" : 4,
              "LONGITUDE" : -81.282349,
              "LATITUDE" : 28.798337
            }
        },
        {
            "type" : "Feature",
            "geometry" : {
              "type" : "Point",
              "coordinates" : [ -80.65705, 28.11785 ]
            },
            "properties" : {
              "ZIP_CO_PSA" : "32935EGLLFLBG4111PC",
              "WIRELESS_SCORE" : 3,
              "LONGITUDE" : -80.65705,
              "LATITUDE" : 28.11785
            }
        },
        {
            "type" : "Feature",
            "geometry" : {
              "type" : "Point",
              "coordinates" : [ -81.454849, 28.574116 ]
            },
            "properties" : {
              "ZIP_CO_PSA" : "32808ORLDFLPH4110PG",
              "WIRELESS_SCORE" : 5,
              "LONGITUDE" : -81.454849,
              "LATITUDE" : 28.574116
            }
        },
        {
            "type" : "Feature",
            "geometry" : {
              "type" : "Point",
              "coordinates" : [ -80.145517, 26.140439 ]
            },
            "properties" : {
              "ZIP_CO_PSA" : "33311FTLDFLMR1211PB",
              "WIRELESS_SCORE" : 4,
              "LONGITUDE" : -80.145517,
              "LATITUDE" : 26.140439
            }
        },
        {
            "type" : "Feature",
            "geometry" : {
              "type" : "Point",
              "coordinates" : [ -81.685319, 30.39192 ]
            },
            "properties" : {
              "ZIP_CO_PSA" : "32208JCVLFLLF5101PA",
              "WIRELESS_SCORE" : 3,
              "LONGITUDE" : -81.685319,
              "LATITUDE" : 30.39192
            }
        },
        {
            "type" : "Feature",
            "geometry" : {
              "type" : "Point",
              "coordinates" : [ -80.8484485, 28.593835 ]
            },
            "properties" : {
              "ZIP_CO_PSA" : "32796TTVLFLMA4107PA",
              "WIRELESS_SCORE" : 5,
              "LONGITUDE" : -80.8484485,
              "LATITUDE" : 28.593835
            }
        },
        {
            "type" : "Feature",
            "geometry" : {
              "type" : "Point",
              "coordinates" : [ -80.3563195, 26.057386 ]
            },
            "properties" : {
              "ZIP_CO_PSA" : "33331HLWDFLPE4303PB",
              "WIRELESS_SCORE" : 4,
              "LONGITUDE" : -80.3563195,
              "LATITUDE" : 26.057386
            }
        },
        {
            "type" : "Feature",
            "geometry" : {
              "type" : "Point",
              "coordinates" : [ -80.109063, 26.815423 ]
            },
            "properties" : {
              "ZIP_CO_PSA" : "33418WPBHFLGR5104PF",
              "WIRELESS_SCORE" : 4,
              "LONGITUDE" : -80.109063,
              "LATITUDE" : 26.815423
            }
        },
        {
            "type" : "Feature",
            "geometry" : {
              "type" : "Point",
              "coordinates" : [ -80.186558, 26.533054 ]
            },
            "properties" : {
              "ZIP_CO_PSA" : "33472BYBHFLMA4802PD",
              "WIRELESS_SCORE" : 2,
              "LONGITUDE" : -80.186558,
              "LATITUDE" : 26.533054
            }
        },
        {
            "type" : "Feature",
            "geometry" : {
              "type" : "Point",
              "coordinates" : [ -80.358568, 27.311312 ]
            },
            "properties" : {
              "ZIP_CO_PSA" : "34983PTSLFLMA3101PA",
              "WIRELESS_SCORE" : 3,
              "LONGITUDE" : -80.358568,
              "LATITUDE" : 27.311312
            }
        },
        {
            "type" : "Feature",
            "geometry" : {
              "type" : "Point",
              "coordinates" : [ -81.56608, 30.305909 ]
            },
            "properties" : {
              "ZIP_CO_PSA" : "32216JCVLFLAR2151PA",
              "WIRELESS_SCORE" : 5,
              "LONGITUDE" : -81.56608,
              "LATITUDE" : 30.305909
            }
        },
        {
            "type" : "Feature",
            "geometry" : {
              "type" : "Point",
              "coordinates" : [ -81.267859, 28.989996 ]
            },
            "properties" : {
              "ZIP_CO_PSA" : "32724DELDFLMA3130PC",
              "WIRELESS_SCORE" : 2,
              "LONGITUDE" : -81.267859,
              "LATITUDE" : 28.989996
            }
        },
        {
            "type" : "Feature",
            "geometry" : {
              "type" : "Point",
              "coordinates" : [ -80.148582, 26.845938 ]
            },
            "properties" : {
              "ZIP_CO_PSA" : "33418WPBHFLGR5202PF",
              "WIRELESS_SCORE" : 2,
              "LONGITUDE" : -80.148582,
              "LATITUDE" : 26.845938
            }
        },
        {
            "type" : "Feature",
            "geometry" : {
              "type" : "Point",
              "coordinates" : [ -80.255718, 26.073378 ]
            },
            "properties" : {
              "ZIP_CO_PSA" : "33328FTLDFLJA3145PA",
              "WIRELESS_SCORE" : 3,
              "LONGITUDE" : -80.255718,
              "LATITUDE" : 26.073378
            }
        },
        {
            "type" : "Feature",
            "geometry" : {
              "type" : "Point",
              "coordinates" : [ -80.357343, 26.0265155 ]
            },
            "properties" : {
              "ZIP_CO_PSA" : "33028HLWDFLPE4213PC",
              "WIRELESS_SCORE" : 3,
              "LONGITUDE" : -80.357343,
              "LATITUDE" : 26.0265155
            }
        },
        {
            "type" : "Feature",
            "geometry" : {
              "type" : "Point",
              "coordinates" : [ -81.051249, 29.247065 ]
            },
            "properties" : {
              "ZIP_CO_PSA" : "32117DYBHFLMA1128PA",
              "WIRELESS_SCORE" : 3,
              "LONGITUDE" : -81.051249,
              "LATITUDE" : 29.247065
            }
        },
        {
            "type" : "Feature",
            "geometry" : {
              "type" : "Point",
              "coordinates" : [ -80.147582, 26.133114 ]
            },
            "properties" : {
              "ZIP_CO_PSA" : "33311FTLDFLMR1207PA",
              "WIRELESS_SCORE" : 5,
              "LONGITUDE" : -80.147582,
              "LATITUDE" : 26.133114
            }
        },
        {
            "type" : "Feature",
            "geometry" : {
              "type" : "Point",
              "coordinates" : [ -80.175582, 26.229413 ]
            },
            "properties" : {
              "ZIP_CO_PSA" : "33069PMBHFLMA2801LA",
              "WIRELESS_SCORE" : 4,
              "LONGITUDE" : -80.175582,
              "LATITUDE" : 26.229413
            }
        },
        {
            "type" : "Feature",
            "geometry" : {
              "type" : "Point",
              "coordinates" : [ -80.158317, 26.843547 ]
            },
            "properties" : {
              "ZIP_CO_PSA" : "33418WPBHFLGR5202PA",
              "WIRELESS_SCORE" : 2,
              "LONGITUDE" : -80.158317,
              "LATITUDE" : 26.843547
            }
        },
        {
            "type" : "Feature",
            "geometry" : {
              "type" : "Point",
              "coordinates" : [ -80.184534, 26.139586 ]
            },
            "properties" : {
              "ZIP_CO_PSA" : "33311FTLDFLPL1109PB",
              "WIRELESS_SCORE" : 3,
              "LONGITUDE" : -80.184534,
              "LATITUDE" : 26.139586
            }
        },
        {
            "type" : "Feature",
            "geometry" : {
              "type" : "Point",
              "coordinates" : [ -80.215842, 26.243108 ]
            },
            "properties" : {
              "ZIP_CO_PSA" : "33063PMBHFLMA4103PB",
              "WIRELESS_SCORE" : 4,
              "LONGITUDE" : -80.215842,
              "LATITUDE" : 26.243108
            }
        },
        {
            "type" : "Feature",
            "geometry" : {
              "type" : "Point",
              "coordinates" : [ -80.830561, 28.630208 ]
            },
            "properties" : {
              "ZIP_CO_PSA" : "32796TTVLFLMA1210PB",
              "WIRELESS_SCORE" : 4,
              "LONGITUDE" : -80.830561,
              "LATITUDE" : 28.630208
            }
        },
        {
            "type" : "Feature",
            "geometry" : {
              "type" : "Point",
              "coordinates" : [ -85.763545, 30.153256 ]
            },
            "properties" : {
              "ZIP_CO_PSA" : "32408PCBHFLNT2206PA",
              "WIRELESS_SCORE" : 5,
              "LONGITUDE" : -85.763545,
              "LATITUDE" : 30.153256
            }
        },
        {
            "type" : "Feature",
            "geometry" : {
              "type" : "Point",
              "coordinates" : [ -80.15134, 26.56497 ]
            },
            "properties" : {
              "ZIP_CO_PSA" : "33467WPBHFLGA3204PX",
              "WIRELESS_SCORE" : 2,
              "LONGITUDE" : -80.15134,
              "LATITUDE" : 26.56497
            }
        },
        {
            "type" : "Feature",
            "geometry" : {
              "type" : "Point",
              "coordinates" : [ -82.473461, 28.978031 ]
            },
            "properties" : {
              "ZIP_CO_PSA" : "34434DNLNFLWM3233PA",
              "WIRELESS_SCORE" : 2,
              "LONGITUDE" : -82.473461,
              "LATITUDE" : 28.978031
            }
        },
        {
            "type" : "Feature",
            "geometry" : {
              "type" : "Point",
              "coordinates" : [ -80.607867, 28.178054 ]
            },
            "properties" : {
              "ZIP_CO_PSA" : "32937EGLLFLIH1115PA",
              "WIRELESS_SCORE" : 4,
              "LONGITUDE" : -80.607867,
              "LATITUDE" : 28.178054
            }
        },
        {
            "type" : "Feature",
            "geometry" : {
              "type" : "Point",
              "coordinates" : [ -80.2617475, 26.182895 ]
            },
            "properties" : {
              "ZIP_CO_PSA" : "33351FTLDFLSU1110PB",
              "WIRELESS_SCORE" : 3,
              "LONGITUDE" : -80.2617475,
              "LATITUDE" : 26.182895
            }
        },
        {
            "type" : "Feature",
            "geometry" : {
              "type" : "Point",
              "coordinates" : [ -80.08792, 26.7901185 ]
            },
            "properties" : {
              "ZIP_CO_PSA" : "33404WPBHFLRB4202PB",
              "WIRELESS_SCORE" : 3,
              "LONGITUDE" : -80.08792,
              "LATITUDE" : 26.7901185
            }
        },
        {
            "type" : "Feature",
            "geometry" : {
              "type" : "Point",
              "coordinates" : [ -80.402649, 27.247062 ]
            },
            "properties" : {
              "ZIP_CO_PSA" : "34953PTSLFLMA3417PB",
              "WIRELESS_SCORE" : 3,
              "LONGITUDE" : -80.402649,
              "LATITUDE" : 27.247062
            }
        },
        {
            "type" : "Feature",
            "geometry" : {
              "type" : "Point",
              "coordinates" : [ -80.183636, 26.493167 ]
            },
            "properties" : {
              "ZIP_CO_PSA" : "33473BYBHFLMA4803PA",
              "WIRELESS_SCORE" : 2,
              "LONGITUDE" : -80.183636,
              "LATITUDE" : 26.493167
            }
        },
        {
            "type" : "Feature",
            "geometry" : {
              "type" : "Point",
              "coordinates" : [ -81.570673, 30.077383 ]
            },
            "properties" : {
              "ZIP_CO_PSA" : "32259MNDRFLLW3177ZE",
              "WIRELESS_SCORE" : 5,
              "LONGITUDE" : -81.570673,
              "LATITUDE" : 30.077383
            }
        },
        {
            "type" : "Feature",
            "geometry" : {
              "type" : "Point",
              "coordinates" : [ -80.160434, 26.50934 ]
            },
            "properties" : {
              "ZIP_CO_PSA" : "33437BYBHFLMA4611PC",
              "WIRELESS_SCORE" : 2,
              "LONGITUDE" : -80.160434,
              "LATITUDE" : 26.50934
            }
        },
        {
            "type" : "Feature",
            "geometry" : {
              "type" : "Point",
              "coordinates" : [ -80.210804, 26.779517 ]
            },
            "properties" : {
              "ZIP_CO_PSA" : "33412WPBHFLGR4405PG",
              "WIRELESS_SCORE" : 4,
              "LONGITUDE" : -80.210804,
              "LATITUDE" : 26.779517
            }
        },
        {
            "type" : "Feature",
            "geometry" : {
              "type" : "Point",
              "coordinates" : [ -80.367063, 27.369945 ]
            },
            "properties" : {
              "ZIP_CO_PSA" : "34983PTSLFLMA1215PA",
              "WIRELESS_SCORE" : 2,
              "LONGITUDE" : -80.367063,
              "LATITUDE" : 27.369945
            }
        },
        {
            "type" : "Feature",
            "geometry" : {
              "type" : "Point",
              "coordinates" : [ -80.231292, 26.3886905 ]
            },
            "properties" : {
              "ZIP_CO_PSA" : "33498BCRTFLSA1211PD",
              "WIRELESS_SCORE" : 3,
              "LONGITUDE" : -80.231292,
              "LATITUDE" : 26.3886905
            }
        },
        {
            "type" : "Feature",
            "geometry" : {
              "type" : "Point",
              "coordinates" : [ -80.1707205, 25.942787 ]
            },
            "properties" : {
              "ZIP_CO_PSA" : "33162NDADFLAC5804PC",
              "WIRELESS_SCORE" : 5,
              "LONGITUDE" : -80.1707205,
              "LATITUDE" : 25.942787
            }
        },
        {
            "type" : "Feature",
            "geometry" : {
              "type" : "Point",
              "coordinates" : [ -81.1717385, 28.531672 ]
            },
            "properties" : {
              "ZIP_CO_PSA" : "32828ORLDFLAP2212PA",
              "WIRELESS_SCORE" : 2,
              "LONGITUDE" : -81.1717385,
              "LATITUDE" : 28.531672
            }
        },
        {
            "type" : "Feature",
            "geometry" : {
              "type" : "Point",
              "coordinates" : [ -81.3403385, 28.4823785 ]
            },
            "properties" : {
              "ZIP_CO_PSA" : "32812ORLDFLPC1225PC",
              "WIRELESS_SCORE" : 2,
              "LONGITUDE" : -81.3403385,
              "LATITUDE" : 28.4823785
            }
        },